state_code,state,city,latitude,longitude
IN.41,Ladakh,Thang,34.9274,76.79336
IN.12,Jammu and Kashmir,Pūnch,33.77033,74.09254
IN.25,Tamil Nadu,Kilakarai,9.23183,78.78545
IN.20,Nagaland,Zunheboto,25.96667,94.51667
IN.30,Arunachal Pradesh,Ziro,27.59497,93.83854
IN.36,Uttar Pradesh,Zamānia,25.41961,83.55786
IN.36,Uttar Pradesh,Zaidpur,26.83093,81.32929
IN.40,Telangana,Zahirābād,17.68138,77.60743
IN.36,Uttar Pradesh,Zafarābād,25.69867,82.73354
IN.11,Himachal Pradesh,Yol,32.16423,76.19622
IN.25,Tamil Nadu,Yercaud,11.77599,78.20927
IN.16,Maharashtra,Yeola,20.0424,74.48944
IN.40,Telangana,Yellāreddi,18.19433,78.01777
IN.19,Karnataka,Yellāpur,14.9637,74.70929
IN.40,Telangana,Yellandu,17.59064,80.32146
IN.19,Karnataka,Yelbarga,15.61545,76.01184
IN.19,Karnataka,Yelandūr,12.04629,77.03034
IN.19,Karnataka,Yelahanka,13.10073,77.59632
IN.12,Jammu and Kashmir,Yechagām,33.98734,74.75166
IN.16,Maharashtra,Yavatmāl,20.39324,78.13201
IN.16,Maharashtra,Yāval,21.16772,75.69762
IN.02,Andhra Pradesh,Yārāda,17.65872,83.27419
IN.02,Andhra Pradesh,Yanam,16.73308,82.21364
IN.10,Haryana,Yamuna Nagar,30.12796,77.28371
IN.17,Manipur,Yairipok,24.67792,94.04767
IN.19,Karnataka,Yadgir,16.77007,77.13755
IN.33,Goa,Xeldem,15.25,74.08333
IN.20,Nagaland,Wokha,26.09717,94.25817
IN.24,Rajasthan,Weir,27.0186,77.17636
IN.25,Tamil Nadu,Wellington,11.36552,76.78442
IN.36,Uttar Pradesh,Wazīrganj,28.21145,79.05665
IN.16,Maharashtra,Wāshīm,20.11128,77.133
IN.16,Maharashtra,Warud,21.47101,78.26965
IN.16,Maharashtra,Warora,20.22885,79.00277
IN.34,Bihar,Wāris Alīganj,25.0172,85.64047
IN.16,Maharashtra,Wardha,20.73933,78.59784
IN.35,Madhya Pradesh,Wārāseonī,21.76184,80.04301
IN.40,Telangana,Warangal,18.0,79.58333
IN.40,Telangana,Wanparti,16.36738,78.06889
IN.09,Gujarat,Wānkāner,22.61198,70.94379
IN.16,Maharashtra,Wani,20.05507,78.95313
IN.17,Manipur,Wāngjing,24.58921,94.06386
IN.16,Maharashtra,Waluj Buzurg,19.79632,75.22648
IN.25,Tamil Nadu,Walajapet,12.9251,79.36626
IN.25,Tamil Nadu,Wālājābād,12.79041,79.82358
IN.16,Maharashtra,Wai,17.95276,73.89058
IN.09,Gujarat,Waghāi,20.77048,73.50074
IN.19,Karnataka,Wādi,17.05183,76.99048
IN.16,Maharashtra,Wadgaon,18.7392,73.63945
IN.16,Maharashtra,Wadgaon,16.83553,74.31338
IN.13,Kerala,Vypīn,9.96667,76.25
IN.09,Gujarat,Vyāra,21.11079,73.39365
IN.02,Andhra Pradesh,Vuyyūru,16.36307,80.84406
IN.36,Uttar Pradesh,Vrindāvan,27.58105,77.69662
IN.25,Tamil Nadu,Vriddhāchalam,11.5183,79.32411
IN.16,Maharashtra,Vovale,18.97567,73.06339
IN.02,Andhra Pradesh,Vizianagaram,18.11692,83.41148
IN.19,Karnataka,Vittal,12.76325,75.09896
IN.16,Maharashtra,Vite,17.27343,74.53792
IN.09,Gujarat,Visnagar,23.69855,72.5521
IN.25,Tamil Nadu,Vishāram,12.91808,79.27756
IN.02,Andhra Pradesh,Visakhapatnam,17.68009,83.20161
IN.09,Gujarat,Vīsāvadar,21.33954,70.74966
IN.25,Tamil Nadu,Virudunagar,9.58509,77.95787
IN.09,Gujarat,Virpur,23.1892,73.47987
IN.25,Tamil Nadu,Virinchīpuram,12.92343,79.02186
IN.25,Tamil Nadu,Vadakku Viravanallur,8.69786,77.51916
IN.19,Karnataka,Virajpet,12.19644,75.80512
IN.16,Maharashtra,Virār,19.45591,72.81136
IN.09,Gujarat,Viramgām,23.12564,72.05014
IN.25,Tamil Nadu,Virālimalai,10.60226,78.54711
IN.25,Tamil Nadu,Vīraganūr,11.47613,78.73553
IN.02,Andhra Pradesh,Vinukonda,16.0531,79.73964
IN.09,Gujarat,Vinchia,22.21027,71.37967
IN.25,Tamil Nadu,Villupuram,11.93975,79.49244
IN.22,Puducherry,Villianur,11.91393,79.75568
IN.25,Tamil Nadu,Vilattikulam,9.13227,78.16635
IN.25,Tamil Nadu,Vikravāndi,12.0369,79.54595
IN.25,Tamil Nadu,Vikramasingapuram,8.71477,77.39032
IN.40,Telangana,Vikārābād,17.3381,77.90441
IN.02,Andhra Pradesh,Vijayawada,16.50745,80.6466
IN.25,Tamil Nadu,Vijayapuri,11.2453,77.50066
IN.09,Gujarat,Vijayanagar,23.9975,73.28553
IN.09,Gujarat,Vijāpur,23.5623,72.74848
IN.35,Madhya Pradesh,Vidisha,23.52604,77.81092
IN.13,Kerala,Vettūr,8.71742,76.72582
IN.25,Tamil Nadu,Vettavalam,12.10769,79.24516
IN.25,Tamil Nadu,Vettaikkaranpudur,10.56207,76.91305
IN.02,Andhra Pradesh,Vetapālem,15.78502,80.30663
IN.33,Goa,Verna,15.35479,73.92454
IN.09,Gujarat,Verāval,20.9077,70.36786
IN.02,Andhra Pradesh,Vepagunta,17.77844,83.21577
IN.02,Andhra Pradesh,Venkatagiri,13.96005,79.58032
IN.16,Maharashtra,Vengurla,15.86125,73.63182
IN.40,Telangana,Vemalwāda,18.46523,78.86894
IN.25,Tamil Nadu,Velur,11.10825,78.00113
IN.25,Tamil Nadu,Vellore,12.9184,79.13255
IN.25,Tamil Nadu,Vellakkovil,10.94627,77.71242
IN.25,Tamil Nadu,Velankanni,10.68333,79.83333
IN.09,Gujarat,Vejalpur,22.69021,73.56299
IN.25,Tamil Nadu,Vedasandūr,10.53102,77.95019
IN.25,Tamil Nadu,Vedaraniyam,10.37208,79.85095
IN.13,Kerala,Vayalār,9.71158,76.33888
IN.09,Gujarat,Vāv,24.36459,71.51203
IN.25,Tamil Nadu,Vattalkundu,10.16069,77.75883
IN.25,Tamil Nadu,Vāsudevanallūr,9.24171,77.41177
IN.16,Maharashtra,Vasind,19.40844,73.26285
IN.33,Goa,Vasco da Gama,15.39585,73.81568
IN.09,Gujarat,Vaso,22.66079,72.75519
IN.09,Gujarat,Vartej,21.73947,72.06553
IN.16,Maharashtra,Varsoli,18.66646,72.86923
IN.13,Kerala,Varkala,8.7333,76.7167
IN.33,Goa,Varca,15.23237,73.94311
IN.16,Maharashtra,Varangaon,21.01767,75.91042
IN.36,Uttar Pradesh,Varanasi,25.31668,83.01041
IN.09,Gujarat,Vanthli,21.4774,70.33115
IN.09,Gujarat,Vānsada,20.75817,73.36389
IN.25,Tamil Nadu,Vaniyambadi,12.68162,78.62014
IN.25,Tamil Nadu,Vandavāsi,12.50429,79.60556
IN.25,Tamil Nadu,Vandalūr,12.8924,80.08079
IN.09,Gujarat,Valsād,20.61013,72.93428
IN.33,Goa,Valpoi,15.53239,74.13671
IN.25,Tamil Nadu,Valparai,10.32691,76.95116
IN.25,Tamil Nadu,Vallam,10.71988,79.05981
IN.09,Gujarat,Vallabh Vidyanagar,22.53333,72.9
IN.09,Gujarat,Vālia,21.57076,73.16019
IN.25,Tamil Nadu,Valavanur,11.92094,79.58239
IN.13,Kerala,Azhikkal,11.94043,75.30512
IN.25,Tamil Nadu,Valangaiman,10.89012,79.39322
IN.09,Gujarat,Valabhīpur,21.88868,71.87935
IN.25,Tamil Nadu,Vaithīsvarankoil,11.19583,79.70736
IN.13,Kerala,Vaikam,9.74858,76.39637
IN.16,Maharashtra,Vaijāpur,19.92672,74.7275
IN.16,Maharashtra,Vagholi,18.5823,73.98301
IN.09,Gujarat,Vāghodia,22.30505,73.40016
IN.09,Gujarat,Vadodara,22.29941,73.20812
IN.09,Gujarat,Vadnagar,23.78593,72.63893
IN.02,Andhra Pradesh,Vadlapūdi,14.31119,79.8043
IN.25,Tamil Nadu,Vadipatti,10.08481,77.96113
IN.09,Gujarat,Vādāsinor,22.95677,73.33505
IN.25,Tamil Nadu,Vadamadurai,10.44081,78.09784
IN.09,Gujarat,Vadāli,23.94232,73.03784
IN.25,Tamil Nadu,Vadakku Valliyūr,8.38286,77.61221
IN.13,Kerala,Vadakāncheri,10.66039,76.24656
IN.16,Maharashtra,Vāda,19.65347,73.14811
IN.25,Tamil Nadu,Ūttukkuli,11.16892,77.45431
IN.25,Tamil Nadu,Uthukkottai,13.33551,79.89
IN.25,Tamil Nadu,Uttiramerūr,12.61433,79.75748
IN.39,Uttarakhand,Uttarkāshi,30.72986,78.44342
IN.25,Tamil Nadu,Ūttangarai,12.26713,78.53783
IN.25,Tamil Nadu,Uttamapālaiyam,9.80701,77.32718
IN.36,Uttar Pradesh,Utraula,27.31933,82.41872
IN.09,Gujarat,Utrān,21.23333,72.86667
IN.40,Telangana,Utnūr,19.36798,78.77608
IN.37,Chhattisgarh,Utai,21.11667,81.38333
IN.25,Tamil Nadu,Usilampatti,9.96936,77.78621
IN.33,Goa,Usgao,15.43333,74.06667
IN.36,Uttar Pradesh,Usehat,27.79796,79.23763
IN.16,Maharashtra,Urun-Islāmpur,17.05,74.26667
IN.23,Punjab,Urmar,31.68137,75.63549
IN.12,Jammu and Kashmir,Uri,34.086,74.032
IN.02,Andhra Pradesh,Uravakonda,14.94348,77.25494
IN.16,Maharashtra,Uran,18.87813,72.93924
IN.13,Kerala,Urakam,10.43333,76.21667
IN.19,Karnataka,Uppinangadi,12.83641,75.24612
IN.25,Tamil Nadu,Uppiliyapuram,11.26356,78.5139
IN.13,Kerala,Uppala,12.68436,74.90068
IN.09,Gujarat,Upleta,21.74015,70.28256
IN.40,Telangana,Uppal Kalan,17.40577,78.55911
IN.36,Uttar Pradesh,Unnāo,26.54706,80.48781
IN.09,Gujarat,Unjha,23.80366,72.39101
IN.24,Rajasthan,Uniāra,26.15336,75.21523
IN.24,Rajasthan,Uniāra,25.91502,76.026
IN.35,Madhya Pradesh,Unhel,23.33794,75.55931
IN.35,Madhya Pradesh,Unchahra,24.38251,80.78088
IN.16,Maharashtra,Unchagao,16.69746,74.27325
IN.11,Himachal Pradesh,Una,31.46493,76.26914
IN.09,Gujarat,Una,20.82318,71.03795
IN.36,Uttar Pradesh,Ūn,29.58479,77.2554
IN.09,Gujarat,Un,23.88745,71.76975
IN.18,Meghalaya,Umsning,25.73647,91.88804
IN.35,Madhya Pradesh,Umri,26.51056,78.93667
IN.16,Maharashtra,Umri,19.0391,77.64539
IN.09,Gujarat,Umreth,22.69881,73.11561
IN.16,Maharashtra,Umred,20.85396,79.32466
IN.09,Gujarat,Umrāla,21.84353,71.80305
IN.37,Chhattisgarh,Umarkot,19.66529,82.20629
IN.16,Maharashtra,Umarkhed,19.60144,77.68878
IN.35,Madhya Pradesh,Umaria,23.52473,80.83716
IN.09,Gujarat,Umargām,20.19718,72.75035
IN.16,Maharashtra,Umarga,17.83841,76.62331
IN.28,West Bengal,Uluberiya,22.4756,88.09898
IN.19,Karnataka,Ullal,12.80569,74.86058
IN.16,Maharashtra,Ulhasnagar,19.21667,73.15
IN.35,Madhya Pradesh,Ukwā,21.97102,80.46625
IN.10,Haryana,Uklāna,29.51124,75.87823
IN.17,Manipur,Ukhrul,25.11957,94.36417
IN.35,Madhya Pradesh,Ujjain,23.18239,75.77643
IN.36,Uttar Pradesh,Ujhāni,28.00311,79.00821
IN.36,Uttar Pradesh,Ugu,26.79681,80.32093
IN.25,Tamil Nadu,Udumalaippettai,10.58806,77.24779
IN.24,Rajasthan,Udpura,24.73355,75.97514
IN.19,Karnataka,Udiyāvara,13.30247,74.73869
IN.19,Karnataka,Udupi,13.33467,74.74617
IN.12,Jammu and Kashmir,Udhampur,32.92431,75.13573
IN.16,Maharashtra,Udgīr,18.39258,77.11756
IN.25,Tamil Nadu,Udangudi,8.42918,78.02968
IN.03,Assam,Udalguri,26.75367,92.10215
IN.21,Odisha,Udala,21.57811,86.56676
IN.25,Tamil Nadu,Udaiyārpālaiyam,11.18733,79.29331
IN.35,Madhya Pradesh,Udaipura,23.07434,78.51108
IN.24,Rajasthan,Udaipur,27.72297,75.47178
IN.24,Rajasthan,Udaipur,24.58584,73.71346
IN.26,Tripura,Udaipur,23.53333,91.48333
IN.21,Odisha,Udayagiri,20.12416,84.36869
IN.25,Tamil Nadu,Ooty,11.4134,76.69521
IN.10,Haryana,Bara Uchāna,29.46747,76.17798
IN.35,Madhya Pradesh,Ubaidullāhganj,22.99834,77.58621
IN.25,Tamil Nadu,Tyāgadurgam,11.74114,79.07698
IN.21,Odisha,Tushara,20.48963,83.48399
IN.19,Karnataka,Turuvekere,13.16374,76.66641
IN.25,Tamil Nadu,Turaiyūr,11.14968,78.5987
IN.18,Meghalaya,Tura,25.51421,90.20239
IN.02,Andhra Pradesh,Tuni,17.35905,82.54607
IN.36,Uttar Pradesh,Tūndla,27.2146,78.23683
IN.16,Maharashtra,Tumsar,21.38333,79.73333
IN.19,Karnataka,Tumkūr,13.34136,77.1022
IN.37,Chhattisgarh,Tumgaon,21.19124,82.12296
IN.36,Uttar Pradesh,Tulsīpur,27.5337,82.41653
IN.16,Maharashtra,Tuljāpur,18.00804,76.07011
IN.28,West Bengal,Tufānganj,26.31688,89.66549
IN.20,Nagaland,Tuensang,26.26704,94.82415
IN.25,Tamil Nadu,Tudiyalūr,11.08159,76.94464
IN.12,Jammu and Kashmir,Tsrār Sharīf,33.86319,74.76524
IN.20,Nagaland,Tseminyu,25.92474,94.21615
IN.13,Kerala,Thiruvananthapuram,8.4855,76.94924
IN.13,Kerala,Trittāla,10.80303,76.12885
IN.13,Kerala,Tripunittura,9.94283,76.33331
IN.16,Maharashtra,Trimbak,19.93268,73.52907
IN.13,Kerala,Thrissur,10.51667,76.21667
IN.12,Jammu and Kashmir,Trāl,33.92708,75.11585
IN.38,Jharkhand,Toto,23.13336,84.52796
IN.10,Haryana,Toshām,28.86993,75.9165
IN.38,Jharkhand,Torpa,22.93605,85.08892
IN.36,Uttar Pradesh,Tori-Fatehpur,25.45505,79.11428
IN.38,Jharkhand,Topchānchi,23.90381,86.19792
IN.35,Madhya Pradesh,Tonk Khurd,23.09831,76.21552
IN.24,Rajasthan,Tonk,26.16638,75.78824
IN.25,Tamil Nadu,Tondi,9.74173,79.01774
IN.10,Haryana,Tohāna,29.71332,75.90441
IN.24,Rajasthan,Todaraisingh,26.02401,75.48182
IN.24,Rajasthan,Todabhim,26.91667,76.81667
IN.25,Tamil Nadu,Tittagudi,11.40717,79.12216
IN.25,Tamil Nadu,Tittachcheri,10.86738,79.78932
IN.36,Uttar Pradesh,Titron,29.66824,77.32391
IN.21,Odisha,Titlāgarh,20.28961,83.15233
IN.28,West Bengal,Titāgarh,22.74252,88.37326
IN.03,Assam,Titābar,26.6014,94.20386
IN.25,Tamil Nadu,Tisaiyanvilai,8.33702,77.86776
IN.25,Tamil Nadu,Tiruvottiyūr,13.15823,80.30181
IN.25,Tamil Nadu,Thiruvidaimaruthur,10.99857,79.45227
IN.25,Tamil Nadu,Cheyyar,12.66052,79.54308
IN.25,Tamil Nadu,Tiruvennanallūr,11.85892,79.36645
IN.25,Tamil Nadu,Tiruvengadam,9.25859,77.6748
IN.25,Tamil Nadu,Tiruvannamalai,12.22662,79.07461
IN.25,Tamil Nadu,Tiruvankod,8.24521,77.301
IN.25,Tamil Nadu,Tiruvallur,13.14376,79.90889
IN.25,Tamil Nadu,Tiruvalam,12.98247,79.26612
IN.13,Kerala,Tiruvalla,9.3816,76.57489
IN.25,Tamil Nadu,Thiruthuraipoondi,10.52819,79.63268
IN.25,Tamil Nadu,Thiruthani,13.17594,79.61637
IN.25,Tamil Nadu,Tiruttangal,9.48333,77.83333
IN.13,Kerala,Tirūrangādi,11.04316,75.92337
IN.13,Kerala,Tirur,10.91368,75.92118
IN.25,Tamil Nadu,Tiruppuvanam,9.82564,78.25795
IN.25,Tamil Nadu,Tiruppur,11.11541,77.35456
IN.25,Tamil Nadu,Tirupporūr,12.7259,80.18954
IN.25,Tamil Nadu,Tirupattur,12.49239,78.56804
IN.25,Tamil Nadu,Tirupparangunram,9.88151,78.07306
IN.25,Tamil Nadu,Tirupananthal,11.09233,79.45252
IN.25,Tamil Nadu,Tiruppālaikudi,9.54606,78.91721
IN.02,Andhra Pradesh,Tirupati,13.63551,79.41989
IN.25,Tamil Nadu,Tirunelveli,8.72742,77.6838
IN.25,Tamil Nadu,Tirumullaivāsal,11.23996,79.83705
IN.25,Tamil Nadu,Tirumangalam,9.82307,77.98381
IN.02,Andhra Pradesh,Tirumala,13.68333,79.35
IN.19,Karnataka,Tirumakūdal Narsipur,12.21207,76.9018
IN.25,Tamil Nadu,Tirukurangudi,8.43646,77.56569
IN.25,Tamil Nadu,Tirukkoyilur,11.9662,79.20259
IN.25,Tamil Nadu,Thirukattupalli,10.84431,78.95647
IN.25,Tamil Nadu,Tirukkalikkunram,12.60799,80.0555
IN.25,Tamil Nadu,Tiruchengode,11.38016,77.89444
IN.25,Tamil Nadu,Tiruchirappalli,10.8155,78.69651
IN.25,Tamil Nadu,Tiruchchendur,8.49725,78.11906
IN.19,Karnataka,Tīrthahalli,13.68835,75.24548
IN.35,Madhya Pradesh,Tirodi,21.68522,79.71906
IN.10,Haryana,Tirāwari,29.80147,76.92825
IN.11,Himachal Pradesh,Tīra Sujānpur,31.83364,76.50539
IN.19,Karnataka,Tiptūr,13.2563,76.47768
IN.03,Assam,Tinsukia,27.48905,95.35992
IN.38,Jharkhand,Tinpahār,24.98333,87.73333
IN.25,Tamil Nadu,Tinnanūr,13.11448,80.02713
IN.36,Uttar Pradesh,Tindwāri,25.61739,80.52718
IN.25,Tamil Nadu,Tindivanam,12.234,79.65551
IN.35,Madhya Pradesh,Timurni,22.37115,77.2274
IN.36,Uttar Pradesh,Tilhar,27.96282,79.73827
IN.36,Uttar Pradesh,Tīkri,29.2291,77.35479
IN.13,Kerala,Tikkotti,11.48333,75.61667
IN.35,Madhya Pradesh,Tīkamgarh,24.74327,78.83061
IN.36,Uttar Pradesh,Tikaitnagar,26.94612,81.56583
IN.24,Rajasthan,Tijāra,27.93411,76.85541
IN.17,Manipur,Thoubāl,24.63881,93.99639
IN.25,Tamil Nadu,Thiruvarur,10.77269,79.6368
IN.25,Tamil Nadu,Thiruvaiyaru,10.88405,79.10362
IN.11,Himachal Pradesh,Theog,31.12155,77.35838
IN.31,Mizoram,Thenzawl,23.31667,92.75
IN.09,Gujarat,Thāsra,22.79831,73.21174
IN.09,Gujarat,Tharād,24.39597,71.62577
IN.09,Gujarat,Thara,23.97345,71.81922
IN.13,Kerala,Thanniyam,10.41667,76.13333
IN.12,Jammu and Kashmir,Thanna Mandi,33.54204,74.381
IN.25,Tamil Nadu,Thanjavur,10.78523,79.13909
IN.10,Haryana,Thānesar,29.97323,76.83214
IN.16,Maharashtra,Thāne,19.19704,72.96355
IN.35,Madhya Pradesh,Thandla,23.00959,74.57747
IN.36,Uttar Pradesh,Thāna Bhawan,29.58605,77.41811
IN.09,Gujarat,Thān,22.57422,71.19942
IN.24,Rajasthan,Tālera,25.31575,75.73276
IN.34,Bihar,Thākurganj,26.42742,88.13112
IN.36,Uttar Pradesh,Thakurdwara,29.19203,78.86145
IN.30,Arunachal Pradesh,Tezu,27.91256,96.12882
IN.03,Assam,Tezpur,26.63333,92.8
IN.25,Tamil Nadu,Tevāram,9.89666,77.28092
IN.19,Karnataka,Terdāl,16.49379,75.04667
IN.35,Madhya Pradesh,Teonthar,24.98207,81.64194
IN.03,Assam,Teok,26.83197,94.41651
IN.38,Jharkhand,Tenu,23.72573,85.84614
IN.25,Tamil Nadu,Thenkasi,8.96003,77.31525
IN.25,Tamil Nadu,Teni,10.01115,77.47772
IN.35,Madhya Pradesh,Tendūkheda,23.3962,79.53947
IN.02,Andhra Pradesh,Thenali,16.24253,80.63982
IN.13,Kerala,Tellicherry,11.74811,75.4929
IN.16,Maharashtra,Telhāra,21.02694,76.83889
IN.02,Andhra Pradesh,Tekkali,18.6057,84.23546
IN.19,Karnataka,Tekkalakote,15.53444,76.87703
IN.34,Bihar,Tekāri,24.94253,84.84265
IN.35,Madhya Pradesh,Tekanpur,25.99401,78.28322
IN.39,Uttarakhand,Tehri,30.39086,78.4803
IN.34,Bihar,Teghra,25.49043,85.94001
IN.30,Arunachal Pradesh,Tawang Town,27.57417,91.795
IN.25,Tamil Nadu,Tāttayyangārpettai,11.12417,78.44916
IN.16,Maharashtra,Tāsgaon,17.037,74.60171
IN.23,Punjab,Tarn Taran,31.45191,74.92777
IN.19,Karnataka,Tarikere,13.70954,75.81382
IN.34,Bihar,Tārāpur,25.09067,86.66197
IN.16,Maharashtra,Tārāpur,19.86499,72.68426
IN.25,Tamil Nadu,Tharangambadi,11.02764,79.85425
IN.24,Rajasthan,Tārānagar,28.6686,75.03207
IN.35,Madhya Pradesh,Tarāna,23.33383,76.04253
IN.25,Tamil Nadu,Tāramangalam,11.69403,77.97035
IN.28,West Bengal,Tarakeswar,22.88605,88.01363
IN.21,Odisha,Tarabha,20.73252,83.67443
IN.24,Rajasthan,Tapukrāh,28.11072,76.8327
IN.10,Haryana,Tāoru,28.21173,76.94984
IN.02,Andhra Pradesh,Tanuku,16.75438,81.68143
IN.09,Gujarat,Tankāra,22.65622,70.74945
IN.21,Odisha,Tāngi,19.93333,85.4
IN.12,Jammu and Kashmir,Tangdhār,34.3979,73.85984
IN.40,Telangana,Tandur,17.24849,77.57698
IN.36,Uttar Pradesh,Tānda,28.97621,78.94187
IN.36,Uttar Pradesh,Tāndā,26.54953,82.65841
IN.39,Uttarakhand,Tanakpur,29.074,80.11139
IN.25,Tamil Nadu,Tammampatti,11.44126,78.4887
IN.28,West Bengal,Tamlūk,22.30083,87.92593
IN.17,Manipur,Tamenglong,25.0164,93.48545
IN.25,Tamil Nadu,Tambaram,12.9246,80.12707
IN.23,Punjab,Talwāra,31.9376,75.88657
IN.23,Punjab,Talwandi Sābo,29.98379,75.08203
IN.23,Punjab,Talwandi Bhai,30.85584,74.92979
IN.16,Maharashtra,Taloje,19.08555,73.09837
IN.16,Maharashtra,Taloda,21.56128,74.21238
IN.16,Maharashtra,Talni,19.88176,76.47322
IN.13,Kerala,Taliparamba,12.04161,75.35927
IN.19,Karnataka,Tālīkota,16.47311,76.31085
IN.36,Uttar Pradesh,Tālgrām,27.04753,79.64811
IN.35,Madhya Pradesh,Talen,23.56949,76.72821
IN.33,Goa,Taleigao,15.46915,73.83285
IN.16,Maharashtra,Talegaon Dābhāde,18.73502,73.67561
IN.21,Odisha,Tālcher,20.94927,85.23354
IN.36,Uttar Pradesh,Tālbahat,25.04357,78.43441
IN.13,Kerala,Talakkād,10.88459,75.93091
IN.09,Gujarat,Talāja,21.3527,72.03524
IN.25,Tamil Nadu,Talaināyar Agrahāram,10.5614,79.77229
IN.35,Madhya Pradesh,Tāl,23.71979,75.38514
IN.25,Tamil Nadu,Takkolam,13.01643,79.73252
IN.28,West Bengal,Tāki,22.58867,88.93253
IN.37,Chhattisgarh,Takhatpur,22.12915,81.86959
IN.24,Rajasthan,Takhatgarh,25.32235,73.00487
IN.16,Maharashtra,Tākalghāt,20.91521,78.94694
IN.36,Uttar Pradesh,Tājpur,29.16242,78.48458
IN.30,Arunachal Pradesh,Taipi Duidam,27.29117,96.04367
IN.02,Andhra Pradesh,Tadpatri,14.90832,78.01031
IN.02,Andhra Pradesh,Tadepalligudem,16.81467,81.52717
IN.02,Andhra Pradesh,Tādepalle,16.48333,80.6
IN.16,Maharashtra,Tādāli,20.03061,79.19443
IN.25,Tamil Nadu,Swāmimalai,10.95747,79.32931
IN.35,Madhya Pradesh,Suwāsra,24.06983,75.65232
IN.09,Gujarat,Sutrāpāra,20.84352,70.48318
IN.35,Madhya Pradesh,Suthālia,23.99552,77.13953
IN.35,Madhya Pradesh,Susner,23.94667,76.08825
IN.40,Telangana,Suriāpet,17.14054,79.62045
IN.36,Uttar Pradesh,Suriānwān,25.46387,82.41922
IN.16,Maharashtra,Surgāna,20.55956,73.63747
IN.09,Gujarat,Surendranagar,22.72706,71.64856
IN.24,Rajasthan,Suratgarh,29.3215,73.89979
IN.09,Gujarat,Surat,21.19594,72.83023
IN.25,Tamil Nadu,Sūrandai,8.97574,77.41923
IN.37,Chhattisgarh,Surajpur,23.21347,82.86836
IN.24,Rajasthan,Sūrajgarh,28.31005,75.73271
IN.34,Bihar,Supaul,26.11527,86.59509
IN.19,Karnataka,Suntikoppa,12.45594,75.8297
IN.24,Rajasthan,Sunel,24.37065,75.95708
IN.11,Himachal Pradesh,Sundarnagar,31.53523,76.905
IN.21,Odisha,Sundergarh,22.11667,84.03333
IN.25,Tamil Nadu,Sundarapāndiyanpattanam,9.84139,79.09836
IN.23,Punjab,Sunām,30.12883,75.79943
IN.21,Odisha,Sunākhala,20.16677,85.33227
IN.12,Jammu and Kashmir,Sumbal,34.23072,74.6472
IN.19,Karnataka,Sullya,12.561,75.38741
IN.02,Andhra Pradesh,Sūlūru,13.7,80.01667
IN.25,Tamil Nadu,Sulur,11.02427,77.12565
IN.23,Punjab,Sultanpur,31.21468,75.19602
IN.39,Uttarakhand,Sultānpur,29.75534,78.11034
IN.36,Uttar Pradesh,Sultānpur,26.25788,82.07269
IN.35,Madhya Pradesh,Sultānpur,23.13812,77.93404
IN.16,Maharashtra,Sultanpur,20.08695,76.5187
IN.19,Karnataka,Sūlibele,13.1844,77.80141
IN.37,Chhattisgarh,Sukma,18.39014,81.65941
IN.24,Rajasthan,Suket,24.64609,76.0417
IN.24,Rajasthan,Sūjāngarh,27.7,74.46667
IN.25,Tamil Nadu,Suchindram,8.15442,77.46704
IN.21,Odisha,Subulia,20.89586,84.16934
IN.36,Uttar Pradesh,Suār,29.02841,79.05654
IN.25,Tamil Nadu,Srivilliputhur,9.51272,77.63369
IN.16,Maharashtra,Srīvardhan,18.04592,73.01552
IN.25,Tamil Nadu,Srivaikuntam,8.62931,77.91281
IN.02,Andhra Pradesh,Srīsailain,16.07217,78.86816
IN.40,Telangana,Srīrāmnagar,17.26652,78.25544
IN.25,Tamil Nadu,Srīperumbūdūr,12.96763,79.94197
IN.19,Karnataka,Srīnivāspur,13.33914,78.21175
IN.19,Karnataka,Sringeri,13.41698,75.25271
IN.12,Jammu and Kashmir,Srinagar,34.08565,74.80555
IN.39,Uttarakhand,Srīnagar,30.22243,78.78341
IN.25,Tamil Nadu,Srīmushnam,11.40118,79.40384
IN.24,Rajasthan,Sri Mādhopur,27.46599,75.59736
IN.24,Rajasthan,Karanpur,29.84042,73.45519
IN.02,Andhra Pradesh,Srikakulam,18.2989,83.89751
IN.23,Punjab,Srīgobindpur,31.68945,75.47751
IN.24,Rajasthan,Sri Dūngargarh,28.09617,74.00868
IN.16,Maharashtra,Soygaon,20.59606,75.61765
IN.36,Uttar Pradesh,Soron,27.89055,78.74621
IN.21,Odisha,Soro,21.27851,86.68833
IN.03,Assam,Sorbhog,26.48612,90.8859
IN.21,Odisha,Sorala,19.13084,84.75089
IN.21,Odisha,Sorada,19.76082,84.42997
IN.19,Karnataka,Sorab,14.38144,75.09183
IN.12,Jammu and Kashmir,Sopur,34.28671,74.47228
IN.35,Madhya Pradesh,Sonkach,22.97166,76.34667
IN.10,Haryana,Sonīpat,28.99478,77.01937
IN.09,Gujarat,Songadh,21.16966,73.56357
IN.21,Odisha,Sonepur,20.83333,83.91667
IN.16,Maharashtra,Sonpet,19.02594,76.47394
IN.16,Maharashtra,Sonegaon,20.62915,78.69207
IN.28,West Bengal,Rajpur Sonarpur,22.4382,88.43205
IN.03,Assam,Sonāri,27.02462,95.01629
IN.26,Tripura,Sonāmura,23.47547,91.2659
IN.28,West Bengal,Sonāmukhi,23.30521,87.41336
IN.19,Karnataka,Somvārpet,12.59698,75.84957
IN.02,Andhra Pradesh,Sompeta,18.94419,84.58449
IN.19,Karnataka,Someshwar,13.49112,75.06646
IN.33,Goa,Solim,15.61521,73.7674
IN.11,Himachal Pradesh,Solan,30.90908,77.10869
IN.09,Gujarat,Sojītra,22.53884,72.71984
IN.24,Rajasthan,Sojat,25.92493,73.66633
IN.10,Haryana,Sohna,28.24737,77.06544
IN.21,Odisha,Sohela,21.30153,83.39797
IN.23,Punjab,Sohāna,30.68871,76.70659
IN.35,Madhya Pradesh,Sohāgpur,22.70055,78.19522
IN.35,Madhya Pradesh,Sohāgi,24.98181,81.69558
IN.12,Jammu and Kashmir,Sogām,34.50137,74.38228
IN.40,Telangana,Soanpeta,18.96995,78.35627
IN.03,Assam,Soalkuchi,26.16806,91.57111
IN.24,Rajasthan,Siwāna,25.65154,72.42243
IN.34,Bihar,Siwān,26.22096,84.35609
IN.16,Maharashtra,Sivni,20.68803,77.04886
IN.25,Tamil Nadu,Sivakasi,9.44999,77.79797
IN.25,Tamil Nadu,Sivagiri,11.12026,77.78811
IN.25,Tamil Nadu,Sivagiri,9.34461,77.42911
IN.25,Tamil Nadu,Sivaganga,9.84701,78.48358
IN.28,West Bengal,Siuri,23.90806,87.52773
IN.25,Tamil Nadu,Chittode,11.3946,77.65884
IN.39,Uttarakhand,Sitārganj,28.9293,79.70436
IN.36,Uttar Pradesh,Sītāpur,27.56192,80.68265
IN.35,Madhya Pradesh,Sītāmau,24.01473,75.35324
IN.34,Bihar,Sītāmarhi,26.59357,85.4906
IN.36,Uttar Pradesh,Siswā Bāzār,27.14652,83.75803
IN.36,Uttar Pradesh,Sisauli,29.41386,77.4689
IN.16,Maharashtra,Sirūr,18.8276,74.37475
IN.25,Tamil Nadu,Sirumugai,11.32137,77.00521
IN.19,Karnataka,Siruguppa,15.63,76.89217
IN.40,Telangana,Sirsilla,18.38865,78.81048
IN.36,Uttar Pradesh,Sirsi,28.63916,78.64303
IN.19,Karnataka,Sirsi,14.62072,74.83554
IN.36,Uttar Pradesh,Sirsāganj,27.05715,78.68661
IN.10,Haryana,Sirsa,29.53489,75.02898
IN.36,Uttar Pradesh,Sirsā,25.2634,82.0919
IN.40,Telangana,Sirpur,19.47953,79.57558
IN.35,Madhya Pradesh,Sironj,24.10313,77.69055
IN.16,Maharashtra,Sironchā,18.84831,79.9638
IN.24,Rajasthan,Sirohi,24.88838,72.84794
IN.24,Rajasthan,Sir Muttra,26.51501,77.37212
IN.35,Madhya Pradesh,Sirmaur,24.83648,81.36448
IN.25,Tamil Nadu,Sīrkāzhi,11.23725,79.73585
IN.23,Punjab,Sirhind,30.64321,76.38421
IN.35,Madhya Pradesh,Sardārpur,22.66553,74.97736
IN.36,Uttar Pradesh,Sirāthu,25.64292,81.31855
IN.19,Karnataka,Sirālkoppa,14.3807,75.25007
IN.19,Karnataka,Sīra,13.74155,76.9043
IN.09,Gujarat,Sinor,21.91117,73.33974
IN.16,Maharashtra,Sinnar,19.84505,73.99866
IN.38,Jharkhand,Sini,22.79325,85.94543
IN.28,West Bengal,Singur,22.80917,88.22944
IN.29,Sikkim,Singtam,27.23467,88.50168
IN.35,Madhya Pradesh,Singoli,24.96667,75.3
IN.24,Rajasthan,Singhāna,28.09959,75.83895
IN.02,Andhra Pradesh,Singarāyakonda,15.23046,80.02794
IN.25,Tamil Nadu,Singapperumālkovil,12.75947,80.0075
IN.25,Tamil Nadu,Singānallūr,10.99898,77.03238
IN.16,Maharashtra,Sindkhed Raja,19.95363,76.12637
IN.16,Maharashtra,Sindi,20.80509,78.88752
IN.19,Karnataka,Sindhnūr,15.76983,76.75581
IN.19,Karnataka,Sindgi,16.91883,76.23368
IN.11,Himachal Pradesh,Shimla,31.10442,77.16662
IN.37,Chhattisgarh,Simga,21.6281,81.70376
IN.38,Jharkhand,Simdega,22.61523,84.50208
IN.35,Madhya Pradesh,Simaria,24.79497,81.152
IN.03,Assam,Simaluguri,26.9185,94.75684
IN.52,Dadra and Nagar Haveli and Daman and Diu,Silvassa,20.27386,72.99673
IN.35,Madhya Pradesh,Silvāni,23.3026,78.44076
IN.16,Maharashtra,Sillod,20.30303,75.65284
IN.03,Assam,Silchar,24.82733,92.79787
IN.34,Bihar,Silao,25.08358,85.42804
IN.24,Rajasthan,Sīkar,27.61206,75.13996
IN.36,Uttar Pradesh,Sikandra Rao,27.68859,78.37985
IN.36,Uttar Pradesh,Sikandra,26.36722,79.6298
IN.36,Uttar Pradesh,Sikandarpur,26.04327,84.05298
IN.36,Uttar Pradesh,Sikandarābād,28.45226,77.70004
IN.09,Gujarat,Sikka,22.43218,69.84158
IN.38,Jharkhand,Sijua,23.77617,86.33028
IN.35,Madhya Pradesh,Sihorā,23.4871,80.10404
IN.09,Gujarat,Sihor,21.71134,71.96179
IN.19,Karnataka,Sidlaghatta,13.38896,77.86444
IN.36,Uttar Pradesh,Sidhpura,27.63312,78.86918
IN.35,Madhya Pradesh,Sidhi,24.4038,81.87954
IN.36,Uttar Pradesh,Sidhaulī,27.28202,80.8345
IN.40,Telangana,Siddipet,18.10483,78.84858
IN.09,Gujarat,Siddhapur,23.91783,72.37212
IN.19,Karnataka,Siddāpur,14.34322,74.894
IN.03,Assam,Sibsāgar,26.98427,94.63784
IN.28,West Bengal,Shyamnagar,22.83333,88.36667
IN.12,Jammu and Kashmir,Shopian,33.71723,74.83413
IN.35,Madhya Pradesh,Shujālpur,23.40673,76.7098
IN.17,Manipur,Shuganu,24.29546,93.87372
IN.19,Karnataka,Shrīrangapattana,12.42264,76.68439
IN.28,West Bengal,Shrīrāmpur,22.75278,88.34222
IN.16,Maharashtra,Shrīgonda,18.61527,74.69895
IN.19,Karnataka,Srāvana Belgola,12.85737,76.48886
IN.19,Karnataka,Shorāpur,16.521,76.75738
IN.13,Kerala,Shōranūr,10.76181,76.27078
IN.25,Tamil Nadu,Sholinghur,13.1181,79.42025
IN.16,Maharashtra,Sholapur,17.67152,75.91044
IN.09,Gujarat,Shivrājpur,22.42319,73.60865
IN.35,Madhya Pradesh,Shivpuri,25.42378,77.66223
IN.36,Uttar Pradesh,Shīshgarh,28.72928,79.31469
IN.16,Maharashtra,Shirwal,18.15059,73.97788
IN.16,Maharashtra,Shirpur,21.34821,74.88035
IN.19,Karnataka,Shirhatti,15.23352,75.57996
IN.16,Maharashtra,Shirgaon,19.69589,72.71527
IN.16,Maharashtra,Shirdi,19.76616,74.47738
IN.19,Karnataka,Shivamogga,13.93157,75.56791
IN.18,Meghalaya,Shillong,25.56892,91.88313
IN.28,West Bengal,Siliguri,26.71004,88.42851
IN.36,Uttar Pradesh,Shikohābād,27.108,78.58661
IN.36,Uttar Pradesh,Shikārpūr,28.28072,78.01411
IN.19,Karnataka,Shikaripura,14.2698,75.35643
IN.19,Karnataka,Shiggaon,14.99053,75.22499
IN.13,Kerala,Shertallai,9.68581,76.33996
IN.36,Uttar Pradesh,Sherkot,29.32704,78.57429
IN.34,Bihar,Sherghāti,24.5595,84.79162
IN.36,Uttar Pradesh,Shergarh,28.65128,79.36815
IN.35,Madhya Pradesh,Sheopur,25.66472,76.69616
IN.34,Bihar,Sheohar,26.51393,85.29341
IN.24,Rajasthan,Sheoganj,25.13915,73.06784
IN.25,Tamil Nadu,Shenkottai,8.97741,77.24633
IN.09,Gujarat,Shehera,22.95084,73.63118
IN.16,Maharashtra,Shegaon,20.7932,76.69921
IN.28,West Bengal,Shāntipur,23.24723,88.43302
IN.40,Telangana,Shankrampet,18.04931,77.91418
IN.36,Uttar Pradesh,Shankargarh,25.182,81.61769
IN.36,Uttar Pradesh,Shamsābād,27.5371,79.43796
IN.36,Uttar Pradesh,Shamsābād,27.01718,78.12358
IN.35,Madhya Pradesh,Shamsābād,23.81495,77.49567
IN.36,Uttar Pradesh,Shāmli,29.4497,77.30959
IN.35,Madhya Pradesh,Shāmgarh,24.18817,75.63903
IN.23,Punjab,Shām Churāsi,31.50028,75.74917
IN.35,Madhya Pradesh,Shājāpur,23.42637,76.27775
IN.34,Bihar,Sheikhpura,25.13994,85.84096
IN.24,Rajasthan,Shāhpura,27.3912,75.95956
IN.24,Rajasthan,Shāhpura,25.62094,74.92487
IN.35,Madhya Pradesh,Shāhpura,23.13663,79.66402
IN.36,Uttar Pradesh,Shāhpur,29.3501,77.5516
IN.34,Bihar,Shāhpur,25.60293,84.40412
IN.35,Madhya Pradesh,Shāhpur,23.89371,79.05074
IN.35,Madhya Pradesh,Shāhpur,23.02446,81.0038
IN.35,Madhya Pradesh,Shāhpur,22.19526,77.90682
IN.09,Gujarat,Shāhpur,22.15611,70.77068
IN.35,Madhya Pradesh,Shāhpur,21.23742,76.22558
IN.19,Karnataka,Shāhpur,16.69605,76.8422
IN.23,Punjab,Shāhkot,31.08173,75.33708
IN.24,Rajasthan,Shāhjahānpur,27.99736,76.44914
IN.36,Uttar Pradesh,Shāhjānpur,27.88165,79.90918
IN.36,Uttar Pradesh,Shāhi,28.55023,79.31761
IN.35,Madhya Pradesh,Shāhgarh,24.31365,79.11806
IN.36,Uttar Pradesh,Shāhganj,26.04965,82.68423
IN.35,Madhya Pradesh,Shahdol,23.29356,81.3619
IN.16,Maharashtra,Shāhāpur,19.45231,73.32572
IN.16,Maharashtra,Shāhāda,21.54538,74.47106
IN.10,Haryana,Shāhābād,30.16776,76.87046
IN.36,Uttar Pradesh,Shāhābād,28.56681,79.00956
IN.36,Uttar Pradesh,Shāhābād,27.6431,79.9402
IN.19,Karnataka,Shāhābād,17.1307,76.94361
IN.10,Haryana,Siwāni,28.90909,75.61469
IN.25,Tamil Nadu,Settūr,9.40564,77.47841
IN.33,Goa,Serula,15.54774,73.84329
IN.31,Mizoram,Serchhīp,23.29312,92.84679
IN.19,Karnataka,Sedam,17.17859,77.28998
IN.37,Chhattisgarh,Seorīnārāyan,21.72055,82.59344
IN.35,Madhya Pradesh,Seoni Mālwa,22.45046,77.4665
IN.35,Madhya Pradesh,Seoni Chhapāra,22.39388,79.54236
IN.11,Himachal Pradesh,Seoni,31.237,77.119
IN.35,Madhya Pradesh,Seoni,22.08503,79.55037
IN.35,Madhya Pradesh,Seondha,26.15422,78.7812
IN.36,Uttar Pradesh,Seohāra,29.20904,78.58837
IN.16,Maharashtra,Shendurjana,21.52488,78.2835
IN.35,Madhya Pradesh,Sendhwa,21.68562,75.09622
IN.25,Tamil Nadu,Sendamangalam,11.28111,78.23416
IN.24,Rajasthan,Semāri,24.05535,73.85687
IN.35,Madhya Pradesh,Sehore,23.2,77.08333
IN.40,Telangana,Secunderabad,17.50427,78.54263
IN.09,Gujarat,Sāyla,22.54925,71.48324
IN.25,Tamil Nadu,Sawyerpuram,8.68216,78.02651
IN.25,Tamil Nadu,Sayalgudi,9.16925,78.44702
IN.24,Rajasthan,Sawai Madhopur,26.02301,76.34408
IN.24,Rajasthan,Sāwa,24.75888,74.57992
IN.09,Gujarat,Sāvli,22.56188,73.22317
IN.16,Maharashtra,Sāvda,21.15054,75.88938
IN.19,Karnataka,Savanūr,14.97335,75.33724
IN.16,Maharashtra,Sāvantvādi,15.90413,73.82191
IN.35,Madhya Pradesh,Sausar,21.65576,78.79669
IN.36,Uttar Pradesh,Saurikh,27.03051,79.48813
IN.19,Karnataka,Saundatti,15.76615,75.11778
IN.25,Tamil Nadu,Sathyamangalam,11.50526,77.23826
IN.35,Madhya Pradesh,Satwās,22.53628,76.68452
IN.25,Tamil Nadu,Sattur,9.35592,77.92457
IN.02,Andhra Pradesh,Sattenapalle,16.39381,80.15221
IN.25,Tamil Nadu,Sathankulam,8.44164,77.91349
IN.36,Uttar Pradesh,Satrikh,26.86045,81.19567
IN.35,Madhya Pradesh,Satna,24.57726,80.82719
IN.09,Gujarat,Sathamba,23.17051,73.32828
IN.16,Maharashtra,Satara,17.68589,73.99333
IN.16,Maharashtra,Satānā,20.59483,74.20301
IN.16,Maharashtra,Sāsvad,18.34351,74.03102
IN.36,Uttar Pradesh,Sāsni,27.70287,78.08278
IN.34,Bihar,Sasarām,24.94942,84.01645
IN.24,Rajasthan,Sawar,25.75574,75.22292
IN.38,Jharkhand,Sāruberā,23.81813,85.99628
IN.23,Punjab,Sarna,32.26306,75.58308
IN.09,Gujarat,Sarkhej,22.98297,72.50196
IN.11,Himachal Pradesh,Sarka Ghāt,31.69887,76.73529
IN.19,Karnataka,Sarjāpur,12.85985,77.78657
IN.36,Uttar Pradesh,Sarīla,25.77579,79.67535
IN.37,Chhattisgarh,Saria,21.64009,83.36311
IN.19,Karnataka,Sargūr,11.99971,76.39611
IN.23,Punjab,Sardulgarh,29.69224,75.23608
IN.36,Uttar Pradesh,Sardhana,29.14551,77.61433
IN.24,Rajasthan,Sardārshahr,28.44062,74.491
IN.24,Rajasthan,Lāwa Sardārgarh,25.23922,73.98915
IN.16,Maharashtra,Saravli,19.77703,72.7528
IN.36,Uttar Pradesh,Sarauli,28.49404,79.09177
IN.35,Madhya Pradesh,Sārangpur,23.56651,76.47306
IN.37,Chhattisgarh,Sārangarh,21.58614,83.0785
IN.37,Chhattisgarh,Saraipali,21.3153,83.00629
IN.36,Uttar Pradesh,Sarāi Mīr,26.02705,82.91843
IN.38,Jharkhand,Saraikela,22.69963,85.93126
IN.36,Uttar Pradesh,Sarai Ekdil,26.74442,79.09353
IN.36,Uttar Pradesh,Sarāi Ākil,25.3789,81.51035
IN.11,Himachal Pradesh,Sarāhan,31.50988,77.79395
IN.37,Chhattisgarh,Sāragaon,21.98651,82.75577
IN.24,Rajasthan,Sapotra,26.2928,76.7522
IN.03,Assam,Sapatgrām,26.33732,90.1236
IN.16,Maharashtra,Saoner,21.3851,78.92155
IN.35,Madhya Pradesh,Sānwer,22.97415,75.8271
IN.33,Goa,Sanvordem,15.26269,74.11965
IN.11,Himachal Pradesh,Santokhgarh,31.35205,76.31775
IN.33,Goa,Sanquelim,15.56422,74.00799
IN.28,West Bengal,Sānkrāil,22.54997,88.22515
IN.09,Gujarat,Sankheda,22.17021,73.5782
IN.19,Karnataka,Sankeshwar,16.25649,74.48195
IN.25,Tamil Nadu,Sankarankovil,9.17048,77.54107
IN.09,Gujarat,Sanjeli,23.0584,73.97024
IN.19,Karnataka,Sanivārsante,12.72824,75.88669
IN.33,Goa,Sanguem,15.22901,74.15149
IN.23,Punjab,Sangrūr,30.24506,75.84488
IN.16,Maharashtra,Sāngola,17.43948,75.19379
IN.24,Rajasthan,Sangod,24.92707,76.28649
IN.16,Maharashtra,Sāngli,16.85438,74.56417
IN.24,Rajasthan,Sangariā,29.79886,74.46683
IN.40,Telangana,Sangāreddi,17.62477,78.08669
IN.16,Maharashtra,Sangamner,19.56784,74.21154
IN.19,Karnataka,Sandūr,15.08613,76.54692
IN.36,Uttar Pradesh,Sandīla,27.06989,80.51497
IN.36,Uttar Pradesh,Sāndi,27.28867,79.9519
IN.33,Goa,Sancoale,15.37794,73.90352
IN.24,Rajasthan,Sānchor,24.75361,71.7728
IN.35,Madhya Pradesh,Sānchi,23.48646,77.7378
IN.35,Madhya Pradesh,Sanāwad,22.17391,76.06993
IN.23,Punjab,Sanaur,30.30182,76.45786
IN.09,Gujarat,Sānand,22.99227,72.38177
IN.36,Uttar Pradesh,Samthar,25.84348,78.90683
IN.23,Punjab,Samrāla,30.83601,76.19324
IN.10,Haryana,Sāmpla,28.77718,76.77165
IN.24,Rajasthan,Samdari,25.81299,72.57879
IN.25,Tamil Nadu,Sāmbūrvadakara,8.99856,77.38763
IN.19,Karnataka,Sāmbre,15.87003,74.61142
IN.24,Rajasthan,Sāmbhar,26.90806,75.19137
IN.36,Uttar Pradesh,Sambhal,28.58498,78.56959
IN.21,Odisha,Sambalpur,21.46527,83.97573
IN.12,Jammu and Kashmir,Sāmba,32.56245,75.11993
IN.25,Tamil Nadu,Samayanallūr,9.97921,78.03592
IN.25,Tamil Nadu,Samattūr,10.6027,77.01409
IN.34,Bihar,Samāstipur,25.86222,85.77953
IN.23,Punjab,Samāna,30.15395,76.19851
IN.02,Andhra Pradesh,Sāmalkot,17.05675,82.17639
IN.10,Haryana,Samālkha,29.23552,77.01273
IN.07,Delhi,Samālka,28.53499,77.09079
IN.02,Andhra Pradesh,Sālūr,18.51716,83.20548
IN.24,Rajasthan,Sālūmbar,24.13524,74.04442
IN.36,Uttar Pradesh,Salon,26.02857,81.45403
IN.33,Goa,Saligao,15.55359,73.79036
IN.25,Tamil Nadu,Salem,11.65376,78.15538
IN.09,Gujarat,Salāya,22.31038,69.60376
IN.24,Rajasthan,Islāmpur,28.15014,75.53987
IN.37,Chhattisgarh,Saktī,22.02662,82.96091
IN.37,Chhattisgarh,Sakrī,22.1054,82.08209
IN.16,Maharashtra,Sakri,20.99104,74.31475
IN.16,Maharashtra,Sākoli,21.08705,79.99145
IN.19,Karnataka,Sakleshpur,12.94119,75.78467
IN.36,Uttar Pradesh,Sakīt,27.43463,78.77903
IN.37,Chhattisgarh,Sāja,21.66667,81.31667
IN.31,Mizoram,Sāitlaw,23.97187,92.57454
IN.31,Mizoram,Sairang,23.81034,92.65226
IN.25,Tamil Nadu,Saint Thomas Mount,13.00334,80.19614
IN.28,West Bengal,Sainthia,23.94826,87.68045
IN.16,Maharashtra,Selu,19.45512,76.44073
IN.35,Madhya Pradesh,Sailāna,23.46219,74.92318
IN.31,Mizoram,Saiha,22.49183,92.98143
IN.36,Uttar Pradesh,Saidpur,28.61089,77.90896
IN.36,Uttar Pradesh,Saidpur,25.53749,83.22378
IN.34,Bihar,Sāhibganj,26.30831,84.92695
IN.38,Jharkhand,Sāhibganj,25.24425,87.63481
IN.36,Uttar Pradesh,Sahāwar,27.79603,78.83373
IN.36,Uttar Pradesh,Sahaswān,28.07227,78.75082
IN.36,Uttar Pradesh,Sahaspur,29.12125,78.62273
IN.34,Bihar,Saharsa,25.87498,86.59611
IN.36,Uttar Pradesh,Sahāranpur,29.9679,77.54522
IN.10,Haryana,Sāha,30.3119,76.97707
IN.24,Rajasthan,Sāgwāra,23.67951,74.02013
IN.09,Gujarat,Sāgbāra,21.5445,73.79173
IN.34,Bihar,Sagauli,26.7639,84.74341
IN.35,Madhya Pradesh,Saugor,23.83877,78.73874
IN.19,Karnataka,Sāgar,14.16498,75.02901
IN.36,Uttar Pradesh,Safīpur,26.73783,80.3435
IN.10,Haryana,Safidon,29.40596,76.67042
IN.12,Jammu and Kashmir,Safāpūr,34.26055,74.66418
IN.24,Rajasthan,Sādri,25.18555,73.45288
IN.10,Haryana,Sādhaura,30.38541,77.22199
IN.36,Uttar Pradesh,Sādāt,25.67117,83.30269
IN.40,Telangana,Sadasivpet,17.61925,77.95263
IN.19,Karnataka,Sadalgi,16.5587,74.53211
IN.36,Uttar Pradesh,Sadābād,27.43818,78.03758
IN.09,Gujarat,Sachīn,21.08718,72.88153
IN.26,Tripura,Sabroom,23.00153,91.72427
IN.34,Bihar,Sabaur,25.2428,87.04465
IN.11,Himachal Pradesh,Sabāthu,30.97494,76.99137
IN.35,Madhya Pradesh,Sabalgarh,26.24918,77.40786
IN.34,Bihar,Rusera,25.75355,86.02597
IN.36,Uttar Pradesh,Rura,26.49001,79.90108
IN.23,Punjab,Ropar,30.96896,76.52695
IN.30,Arunachal Pradesh,Rupa,27.20484,92.4008
IN.39,Uttarakhand,Rudraprayāg,30.28467,78.98354
IN.36,Uttar Pradesh,Rūdarpur,26.44467,83.61302
IN.39,Uttarakhand,Roorkee,29.86632,77.89118
IN.19,Karnataka,Ron,15.69935,75.73408
IN.10,Haryana,Rohtak,28.89447,76.58917
IN.11,Himachal Pradesh,Rohru,31.20269,77.75484
IN.09,Gujarat,Roha,23.19646,69.27076
IN.16,Maharashtra,Roha,18.43687,73.11964
IN.19,Karnataka,Robertsonpet,12.95629,78.27539
IN.36,Uttar Pradesh,Robertsganj,24.6886,83.06784
IN.16,Maharashtra,Risod,19.97671,76.78799
IN.28,West Bengal,Rishra,22.72394,88.34563
IN.39,Uttarakhand,Rishīkesh,30.10778,78.29255
IN.24,Rajasthan,Reengus,27.3636,75.56838
IN.36,Uttar Pradesh,Richha,28.69467,79.52284
IN.12,Jammu and Kashmir,Riāsi,33.08115,74.83242
IN.29,Sikkim,Rhenok,27.17821,88.64675
IN.10,Haryana,Rewāri,28.199,76.6183
IN.35,Madhya Pradesh,Rewa,24.53256,81.29234
IN.34,Bihar,Revelganj,25.78976,84.63596
IN.16,Maharashtra,Revadanda,18.55363,72.92559
IN.02,Andhra Pradesh,Repalle,16.0184,80.82958
IN.36,Uttar Pradesh,Reoti,25.85091,84.3778
IN.24,Rajasthan,Reodhar,24.6197,72.5262
IN.36,Uttar Pradesh,Renukūt,24.21641,83.0358
IN.02,Andhra Pradesh,Renigunta,13.65143,79.51256
IN.21,Odisha,Rengāli,21.64602,84.05311
IN.21,Odisha,Remuna,21.52798,86.87156
IN.35,Madhya Pradesh,Rehti,22.73781,77.43399
IN.35,Madhya Pradesh,Rehli,23.63722,79.06275
IN.02,Andhra Pradesh,Rāzole,16.47608,81.83912
IN.02,Andhra Pradesh,Rāzām,18.44909,83.65957
IN.19,Karnataka,Raybag,16.49178,74.77391
IN.21,Odisha,Rāyagada,19.17132,83.41428
IN.02,Andhra Pradesh,Rāyadrug,14.69971,76.85241
IN.02,Andhra Pradesh,Rayachoti,14.05723,78.75056
IN.36,Uttar Pradesh,Rāya,27.55607,77.78972
IN.38,Jharkhand,Rāy,23.6843,85.05457
IN.34,Bihar,Raxaul,26.97982,84.85065
IN.24,Rajasthan,Rāwatsār,29.26724,74.40288
IN.24,Rajasthan,Rāwatbhāta,24.92981,75.59209
IN.16,Maharashtra,Rāver,21.24757,76.03509
IN.21,Odisha,Rourkela,22.22496,84.86414
IN.38,Jharkhand,Rātu,23.42045,85.21459
IN.16,Maharashtra,Ratnagiri,16.99154,73.31022
IN.35,Madhya Pradesh,Ratlām,23.33033,75.04032
IN.10,Haryana,Ratia,29.69029,75.57688
IN.36,Uttar Pradesh,Rāth,25.59474,79.5666
IN.37,Chhattisgarh,Ratanpur,22.2866,82.16823
IN.24,Rajasthan,Ratangarh,28.08137,74.61854
IN.35,Madhya Pradesh,Ratangarh,24.81667,75.11667
IN.36,Uttar Pradesh,Rasūlābād,26.74491,80.49012
IN.36,Uttar Pradesh,Rasrā,25.8576,83.85487
IN.25,Tamil Nadu,Rasipuram,11.46009,78.18635
IN.02,Andhra Pradesh,Rasapūdipalem,17.73308,83.31622
IN.09,Gujarat,Rāpar,23.57267,70.64718
IN.09,Gujarat,Rānpur,22.35161,71.71179
IN.26,Tripura,Rānīr Bāzār,23.83463,91.36614
IN.36,Uttar Pradesh,Rānīpur,25.25034,79.06204
IN.25,Tamil Nadu,Rānipet,12.92471,79.33331
IN.39,Uttarakhand,Rānikhet,29.64082,79.43229
IN.28,West Bengal,Rānīganj,23.6164,87.13061
IN.19,Karnataka,Ranebennur,14.62239,75.62951
IN.10,Haryana,Rānia,29.52454,74.83689
IN.24,Rajasthan,Rāni,25.35031,73.30885
IN.29,Sikkim,Rangpo,27.17733,88.53358
IN.03,Assam,Rangia,26.44931,91.61356
IN.03,Assam,Rangāpāra,26.83772,92.66876
IN.03,Assam,Rangapahār,25.85571,93.70516
IN.38,Jharkhand,Ranchi,23.34316,85.3094
IN.09,Gujarat,Rānāvāv,21.68734,69.74485
IN.35,Madhya Pradesh,Rānāpur,22.64704,74.52118
IN.28,West Bengal,Rānāghāt,23.17623,88.56667
IN.16,Maharashtra,Rāmtek,21.39562,79.32725
IN.28,West Bengal,Rampur Hat,24.17737,87.78275
IN.23,Punjab,Rāmpura,30.256,75.24116
IN.36,Uttar Pradesh,Rāmpura,26.34967,79.18234
IN.35,Madhya Pradesh,Rāmpura,24.467,75.43996
IN.11,Himachal Pradesh,Rāmpur,31.44943,77.63087
IN.36,Uttar Pradesh,Rāmpur,29.8062,77.45251
IN.36,Uttar Pradesh,Rāmpur,28.81014,79.02699
IN.35,Madhya Pradesh,Rāmpur,24.50249,81.05516
IN.35,Madhya Pradesh,Rāmpur,24.33987,81.47534
IN.21,Odisha,Rāmpur,21.07351,84.34095
IN.21,Odisha,Rāmpur,20.19808,83.52049
IN.12,Jammu and Kashmir,Rāmnagar,32.80728,75.31119
IN.39,Uttarakhand,Rāmnagar,29.3925,79.1283
IN.34,Bihar,Rāmnagar,27.16371,84.32342
IN.36,Uttar Pradesh,Rāmnagar,27.08499,81.40575
IN.36,Uttar Pradesh,Rāmnagar,25.26907,83.02971
IN.36,Uttar Pradesh,Rāmkola,26.90172,83.83758
IN.28,West Bengal,Rāmjībanpur,22.82815,87.60888
IN.40,Telangana,Rāmgundam,18.80084,79.45206
IN.12,Jammu and Kashmir,Rāmgarh,33.40379,74.22388
IN.12,Jammu and Kashmir,Rāmgarh,32.5084,74.96449
IN.10,Haryana,Rāmgarh,30.64866,76.88901
IN.24,Rajasthan,Rāmgarh,28.17096,74.97973
IN.24,Rajasthan,Rāmgarh,27.25097,75.17893
IN.34,Bihar,Rāmgarh,25.28893,83.65355
IN.38,Jharkhand,Rāmgarh,23.6303,85.52156
IN.24,Rajasthan,Rāmganj Mandi,24.64648,75.94325
IN.25,Tamil Nadu,Rameswaram,9.2885,79.31271
IN.19,Karnataka,Rāmdurg,15.94579,75.29785
IN.23,Punjab,Rām Dās,31.96739,74.9087
IN.21,Odisha,Rambha,19.51667,85.1
IN.12,Jammu and Kashmir,Rāmban,33.24278,75.23513
IN.02,Andhra Pradesh,Rāmāpuram,15.28749,77.86722
IN.02,Andhra Pradesh,Rāmāpuram,13.10091,79.1841
IN.37,Chhattisgarh,Rāmānuj Ganj,23.80637,83.69981
IN.25,Tamil Nadu,Ramanathapuram,9.37158,78.83077
IN.40,Telangana,Rāmanapeta,17.28941,79.09417
IN.19,Karnataka,Closepet,12.72181,77.28149
IN.13,Kerala,Rāmamangalam,9.93333,76.5
IN.21,Odisha,Rāmagiri Udayagiri,19.16039,84.14265
IN.02,Andhra Pradesh,Rāmachandrapuram,16.83636,82.02871
IN.52,Dadra and Nagar Haveli and Daman and Diu,Rakholi,20.21667,73.03333
IN.24,Rajasthan,Rakhabh Dev,24.07564,73.69304
IN.16,Maharashtra,Rājūra,19.77947,79.36459
IN.16,Maharashtra,Rājur,20.11087,78.89311
IN.09,Gujarat,Rājula,21.03854,71.44345
IN.24,Rajasthan,Rājsamand,25.07145,73.8798
IN.23,Punjab,Rajpura,30.47856,76.59284
IN.35,Madhya Pradesh,Alirajpur,22.30393,74.35568
IN.35,Madhya Pradesh,Rajpur,21.94022,75.13608
IN.09,Gujarat,Rājpīpla,21.86667,73.5
IN.37,Chhattisgarh,Rāj-Nāndgaon,21.09687,81.0289
IN.35,Madhya Pradesh,Rājnagar,24.88929,79.91178
IN.38,Jharkhand,Rājmahal,25.05303,87.83048
IN.09,Gujarat,Rājkot,22.29161,70.79322
IN.37,Chhattisgarh,Rājim,20.96351,81.87994
IN.16,Maharashtra,Rājgurunagar,18.86667,73.9
IN.34,Bihar,Rājgīr,25.02828,85.42079
IN.11,Himachal Pradesh,Rājgarh,30.85142,77.30066
IN.24,Rajasthan,Rājgarh,28.64201,75.38612
IN.24,Rajasthan,Rājgarh,27.23731,76.62243
IN.35,Madhya Pradesh,Rājgarh,24.00826,76.7325
IN.35,Madhya Pradesh,Rājgarh,22.67821,74.94483
IN.12,Jammu and Kashmir,Rajaori,33.37526,74.3092
IN.34,Bihar,Rajauli,24.64486,85.50028
IN.25,Tamil Nadu,Rājāsingamangalam,9.63574,78.84613
IN.23,Punjab,Rāja Sānsi,31.72021,74.8008
IN.21,Odisha,Rāja Ranapur,20.06168,85.34364
IN.36,Uttar Pradesh,Rājāpur,25.389,81.145
IN.16,Maharashtra,Rājāpur,16.65679,73.51701
IN.25,Tamil Nadu,Rajapalayam,9.45296,77.55335
IN.02,Andhra Pradesh,Rāzampeta,14.19544,79.15896
IN.24,Rajasthan,Rājaldesar,28.02849,74.47442
IN.24,Rajasthan,Rājākhera,26.89802,78.171
IN.02,Andhra Pradesh,Rajamahendravaram,17.00517,81.77784
IN.38,Jharkhand,Rājābhita,23.86667,86.33333
IN.39,Uttarakhand,Rāīwāla Bara,30.01864,78.2293
IN.24,Rajasthan,Rāisinghnagar,29.53583,73.44917
IN.35,Madhya Pradesh,Raisen,23.33033,77.7811
IN.10,Haryana,Rāipur Rāni,30.5856,77.02177
IN.39,Uttarakhand,Rāipur,30.31097,78.08979
IN.24,Rajasthan,Raipur,26.04259,74.02373
IN.37,Chhattisgarh,Raipur,21.23333,81.63333
IN.23,Punjab,Rāikot,30.65,75.6
IN.37,Chhattisgarh,Raighar,19.88779,82.07177
IN.37,Chhattisgarh,Raigarh,21.89764,83.3966
IN.28,West Bengal,Rāiganj,25.61281,88.12449
IN.19,Karnataka,Rāichūr,16.20546,77.35567
IN.33,Goa,Raia,15.30499,73.97096
IN.16,Maharashtra,Rāhuri,19.39069,74.64979
IN.23,Punjab,Rāhon,31.05275,76.11907
IN.16,Maharashtra,Rahimatpur,17.5921,74.19966
IN.35,Madhya Pradesh,Rāhatgarh,23.78968,78.39473
IN.16,Maharashtra,Rahata,19.71664,74.48109
IN.03,Assam,Rahā,26.23333,92.51667
IN.34,Bihar,Raghunāthpur,25.64492,87.91762
IN.28,West Bengal,Raghunathpur,23.53878,86.6735
IN.35,Madhya Pradesh,Rāghogarh,24.44318,77.19768
IN.34,Bihar,Rafiganj,24.81757,84.63445
IN.36,Uttar Pradesh,Raebareli,26.2309,81.23315
IN.09,Gujarat,Rādhanpur,23.83238,71.6047
IN.36,Uttar Pradesh,Rādhākund,27.52432,77.49101
IN.26,Tripura,Rādhākishorepur,23.53682,91.49152
IN.10,Haryana,Radaur,30.02706,77.15177
IN.36,Uttar Pradesh,Rabūpura,28.25153,77.60253
IN.19,Karnataka,Rabkavi,16.47567,75.1106
IN.13,Kerala,Kollam,8.88113,76.58469
IN.13,Kerala,Koyilandy,11.4381,75.69306
IN.33,Goa,Queula,15.39011,73.98557
IN.33,Goa,Quepem,15.2128,74.0772
IN.12,Jammu and Kashmir,Qāzigund,33.63828,75.14261
IN.34,Bihar,Kasba,25.85643,87.53836
IN.23,Punjab,Qadian,31.82198,75.37663
IN.02,Andhra Pradesh,Puttūr,13.44189,79.55314
IN.19,Karnataka,Puttūr,12.75975,75.20169
IN.24,Rajasthan,Pushkar,26.49022,74.55211
IN.37,Chhattisgarh,Pusaur,21.75386,83.38231
IN.16,Maharashtra,Pusad,19.91274,77.57838
IN.36,Uttar Pradesh,Purwā,26.45756,80.77403
IN.21,Odisha,Purushottampur,19.52024,84.88514
IN.28,West Bengal,Puruliya,23.33062,86.36303
IN.34,Bihar,Purnia,25.77895,87.47422
IN.16,Maharashtra,Pūrna,19.1817,77.02566
IN.21,Odisha,Puri,19.79825,85.82494
IN.36,Uttar Pradesh,Pūranpur,28.51283,80.14829
IN.34,Bihar,Purāini,25.14257,86.97967
IN.34,Bihar,Pupri,26.47079,85.70311
IN.25,Tamil Nadu,Punjai Puliyampatti,11.35163,77.16671
IN.02,Andhra Pradesh,Punganūru,13.36672,78.57186
IN.16,Maharashtra,Pune,18.51957,73.85535
IN.10,Haryana,Pūndri,29.76096,76.56034
IN.35,Madhya Pradesh,Punāsa,22.23507,76.39335
IN.13,Kerala,Punalūr,9.01956,76.92261
IN.10,Haryana,Pūnāhāna,27.86371,77.20432
IN.12,Jammu and Kashmir,Pulwama,33.87405,74.89955
IN.25,Tamil Nadu,Pullambādi,10.9411,78.91041
IN.25,Tamil Nadu,Puliyūr,10.63375,78.84139
IN.25,Tamil Nadu,Puliyankudi,9.17489,77.39799
IN.02,Andhra Pradesh,Pulivendla,14.42139,78.22502
IN.16,Maharashtra,Pulgaon,20.72204,78.32056
IN.36,Uttar Pradesh,Pukhrāyān,26.22375,79.83739
IN.25,Tamil Nadu,Pugalūr,11.07401,78.02095
IN.25,Tamil Nadu,Puduvāyal,13.33015,80.14577
IN.25,Tamil Nadu,Pudūr,12.99801,79.14352
IN.25,Tamil Nadu,Pudūr,9.29169,78.13848
IN.25,Tamil Nadu,Puduppatti,11.15217,78.21205
IN.13,Kerala,Pudunagaram,10.68018,76.68363
IN.25,Tamil Nadu,Pudukkottai,10.38128,78.82141
IN.02,Andhra Pradesh,Proddatūr,14.7502,78.54813
IN.33,Goa,Priol,15.41667,73.98333
IN.36,Uttar Pradesh,Pratāpgarh,25.89509,81.9424
IN.24,Rajasthan,Pratāpgarh,24.03215,74.78162
IN.25,Tamil Nadu,Pottanūr,11.10983,77.98883
IN.01,Andaman and Nicobar,Port Blair,11.66613,92.74635
IN.35,Madhya Pradesh,Porsa,26.67444,78.37081
IN.09,Gujarat,Porbandar,21.64219,69.60929
IN.25,Tamil Nadu,Poonamalle,13.04888,80.11488
IN.02,Andhra Pradesh,Ponnūru,16.06547,80.55203
IN.25,Tamil Nadu,Ponneri,13.33868,80.19487
IN.13,Kerala,Ponnāni,10.76695,75.92523
IN.19,Karnataka,Ponnampet,12.14473,75.94514
IN.25,Tamil Nadu,Ponnamarāvati,10.28032,78.53601
IN.22,Puducherry,Puducherry,11.93381,79.82979
IN.33,Goa,Ponda,15.40341,74.01519
IN.25,Tamil Nadu,Polūr,12.51217,79.12405
IN.25,Tamil Nadu,Pollachi,10.65825,77.0085
IN.02,Andhra Pradesh,Polavaram,17.24754,81.64372
IN.21,Odisha,Polasara,19.69386,84.81401
IN.35,Madhya Pradesh,Polāia Kalān,23.21189,76.55286
IN.24,Rajasthan,Pokaran,26.92007,71.91631
IN.02,Andhra Pradesh,Podili,15.60639,79.61489
IN.41,Ladakh,Pituk,34.13908,77.53604
IN.21,Odisha,Pittal,19.53221,84.72983
IN.39,Uttarakhand,Pithorāgarh,29.58349,80.20947
IN.37,Chhattisgarh,Pithora,21.25021,82.51707
IN.02,Andhra Pradesh,Pithāpuram,17.1168,82.25284
IN.35,Madhya Pradesh,Pirthīpur,25.20837,78.75158
IN.34,Bihar,Piro,25.33218,84.40454
IN.19,Karnataka,Piriyāpatna,12.33497,76.10073
IN.24,Rajasthan,Pirāwa,24.15506,76.02728
IN.13,Kerala,Piravam,9.86667,76.5
IN.16,Maharashtra,Pirangut,18.5084,73.68924
IN.16,Maharashtra,Pīpri,19.79371,75.53519
IN.36,Uttar Pradesh,Pipraich,26.82745,83.52632
IN.02,Andhra Pradesh,Pippara,16.71667,81.55
IN.35,Madhya Pradesh,Piploda,23.60732,74.94198
IN.35,Madhya Pradesh,Piploda,23.35,75.43333
IN.35,Madhya Pradesh,Pīpla,21.59071,78.73494
IN.21,Odisha,Pipili,20.11357,85.83147
IN.35,Madhya Pradesh,Pipariā,22.75703,78.35499
IN.24,Rajasthan,Pīpār,26.38441,73.54394
IN.35,Madhya Pradesh,Pipalrawān,23.16252,76.47044
IN.39,Uttarakhand,Pīpalkoti,30.42553,79.43066
IN.10,Haryana,Pinjaur,30.79873,76.91822
IN.24,Rajasthan,Pindwāra,24.79749,73.05505
IN.35,Madhya Pradesh,Pindrai,22.52054,80.03807
IN.10,Haryana,Pingawān,27.8959,77.1022
IN.36,Uttar Pradesh,Pināhat,26.88487,78.37647
IN.16,Maharashtra,Pimpri,18.62292,73.80696
IN.36,Uttar Pradesh,Pilkhua,28.71271,77.656
IN.36,Uttar Pradesh,Pīlibhīt,28.63124,79.80436
IN.24,Rajasthan,Pilibangan,29.44964,74.10093
IN.02,Andhra Pradesh,Pīleru,13.65584,78.93854
IN.33,Goa,Pilerne,15.53353,73.79533
IN.24,Rajasthan,Pilāni,28.36725,75.60352
IN.36,Uttar Pradesh,Pihānī,27.61987,80.20343
IN.02,Andhra Pradesh,Pidugurālla,16.47926,79.88632
IN.35,Madhya Pradesh,Pichor,25.17555,78.18863
IN.36,Uttar Pradesh,Phūlpur,26.07779,82.87608
IN.36,Uttar Pradesh,Phulpur,25.54895,82.0895
IN.24,Rajasthan,Phulera,26.87401,75.24171
IN.21,Odisha,Phulbāni,20.48101,84.23063
IN.02,Andhra Pradesh,Phirangipuram,16.29078,80.26233
IN.23,Punjab,Phillaur,31.01887,75.79111
IN.17,Manipur,Phek,25.66667,94.5
IN.36,Uttar Pradesh,Pharihā,27.32166,78.47267
IN.36,Uttar Pradesh,Phaphūnd,26.59888,79.46437
IN.16,Maharashtra,Phaltan,17.99113,74.43177
IN.24,Rajasthan,Phalodi,27.13102,72.36826
IN.36,Uttar Pradesh,Phalauda,29.18824,77.82996
IN.23,Punjab,Phagwāra,31.22452,75.77387
IN.35,Madhya Pradesh,Petlāwad,23.01102,74.79772
IN.09,Gujarat,Petlād,22.47681,72.79995
IN.09,Gujarat,Pethāpur,23.26307,72.67386
IN.25,Tamil Nadu,Perūr,10.97519,76.91292
IN.25,Tamil Nadu,Perundurai,11.27564,77.58794
IN.13,Kerala,Perumpāvūr,10.11544,76.47611
IN.25,Tamil Nadu,Perumānallūr,11.20503,77.35889
IN.33,Goa,Pernem,15.723,73.79511
IN.25,Tamil Nadu,Periyapatti,10.75812,77.27087
IN.25,Tamil Nadu,Periyanegamam,10.74317,77.10296
IN.25,Tamil Nadu,Periyanayakkanpalaiyam,11.15255,76.95159
IN.25,Tamil Nadu,Periyakulam,10.12268,77.54372
IN.13,Kerala,Perya,11.83334,75.85408
IN.13,Kerala,Perintalmanna,10.97724,76.22541
IN.25,Tamil Nadu,Peravurani,10.29035,79.20156
IN.25,Tamil Nadu,Peranāmpattu,12.9343,78.7189
IN.25,Tamil Nadu,Peranamallūr,12.57052,79.43332
IN.25,Tamil Nadu,Perambalur,11.23333,78.88333
IN.25,Tamil Nadu,Peraiyur,9.73579,77.78955
IN.02,Andhra Pradesh,Penukonda,14.08286,77.59473
IN.02,Andhra Pradesh,Penugonda,16.65363,81.7455
IN.25,Tamil Nadu,Pennāthur,12.24681,79.22592
IN.25,Tamil Nadu,Pennāgaram,12.13433,77.89525
IN.25,Tamil Nadu,Pennādam,11.40389,79.24156
IN.37,Chhattisgarh,Pendra,22.77548,81.95968
IN.16,Maharashtra,Pen,18.73734,73.09603
IN.10,Haryana,Pehowa,29.97897,76.58249
IN.02,Andhra Pradesh,Peddāpuram,17.07701,82.13836
IN.40,Telangana,Peddapalli,18.61357,79.37442
IN.25,Tamil Nadu,Peddanāyakkanpālaiyam,11.65104,78.50872
IN.02,Andhra Pradesh,Pedana,16.25582,81.14378
IN.13,Kerala,Payyanur,12.0935,75.20249
IN.36,Uttar Pradesh,Pawāyan,28.06626,80.10305
IN.35,Madhya Pradesh,Pawai,24.26635,80.16196
IN.19,Karnataka,Pāvugada,14.09953,77.28018
IN.39,Uttarakhand,Pauri,30.15286,78.7771
IN.16,Maharashtra,Pawni,20.79229,79.63644
IN.16,Maharashtra,Pātūr,20.46093,76.93725
IN.28,West Bengal,Pātuli,23.55286,88.26473
IN.25,Tamil Nadu,Pattukkottai,10.42358,79.31949
IN.13,Kerala,Pattiyūrgrāmam,9.17744,76.50115
IN.23,Punjab,Patti,31.28092,74.85849
IN.36,Uttar Pradesh,Patti,25.9215,82.20048
IN.12,Jammu and Kashmir,Pattan,34.16125,74.55634
IN.13,Kerala,Pattāmbi,10.80005,76.18408
IN.38,Jharkhand,Patrātu,23.66505,85.30353
IN.28,West Bengal,Pātrasāer,23.19697,87.53319
IN.02,Andhra Pradesh,Pātrapur,19.13198,84.57036
IN.21,Odisha,Patnāgarh,20.70833,83.13263
IN.34,Bihar,Patna,25.59408,85.13563
IN.36,Uttar Pradesh,Patiāli,27.69086,78.99823
IN.23,Punjab,Patiāla,30.33625,76.3922
IN.16,Maharashtra,Pāthri,19.2588,76.43412
IN.35,Madhya Pradesh,Patharia,23.89921,79.19393
IN.37,Chhattisgarh,Patharia,22.01847,81.83512
IN.38,Jharkhand,Pāthardih,23.6658,86.43166
IN.16,Maharashtra,Pāthardi,19.17279,75.17425
IN.23,Punjab,Pathānkot,32.27484,75.65287
IN.13,Kerala,Pathanāmthitta,9.26667,76.78333
IN.37,Chhattisgarh,Pathalgaon,22.55656,83.46355
IN.10,Haryana,Pataudi,28.32547,76.77858
IN.40,Telangana,Patancheru,17.53334,78.2645
IN.09,Gujarat,Pātan,23.8507,72.12963
IN.35,Madhya Pradesh,Pātan,23.28636,79.68962
IN.37,Chhattisgarh,Pātan,21.03333,81.53333
IN.16,Maharashtra,Pātan,17.37513,73.90143
IN.21,Odisha,Patāmundai,20.57806,86.56063
IN.30,Arunachal Pradesh,Pāsighāt,28.06631,95.32678
IN.37,Chhattisgarh,Pasān,22.84412,82.19823
IN.33,Goa,Parxem,15.67512,73.77991
IN.24,Rajasthan,Parvatsar,26.88604,74.76602
IN.02,Andhra Pradesh,Pārvatipuram,18.78392,83.42569
IN.13,Kerala,Parūr,10.1477,76.23
IN.16,Maharashtra,Partūr,19.59925,76.21541
IN.25,Tamil Nadu,Pārtibanūr,9.5855,78.45452
IN.24,Rajasthan,Partāpur,23.59276,74.17396
IN.37,Chhattisgarh,Partābpur,23.48514,83.21006
IN.36,Uttar Pradesh,Parshādepur,26.07354,81.49207
IN.37,Chhattisgarh,Parpori,21.5869,81.20783
IN.16,Maharashtra,Parola,20.88098,75.11937
IN.12,Jammu and Kashmir,Parol,32.34598,75.43441
IN.09,Gujarat,Parnera,20.56101,72.94846
IN.16,Maharashtra,Parli Vaijnāth,18.85057,76.53163
IN.13,Kerala,Pariyāpuram,11.01667,75.86667
IN.36,Uttar Pradesh,Parīchhatgarh,28.97841,77.93422
IN.36,Uttar Pradesh,Pārīchha,25.50789,78.75954
IN.09,Gujarat,Pārdi,20.5087,72.94569
IN.16,Maharashtra,Parbhani,19.26855,76.77081
IN.13,Kerala,Paravūr Tekkumbhāgam,8.7947,76.66798
IN.25,Tamil Nadu,Pārassāla,8.33869,77.15422
IN.35,Madhya Pradesh,Parāsia,22.1913,78.75904
IN.37,Chhattisgarh,Parasgaon,19.86224,81.64041
IN.25,Tamil Nadu,Paramati,11.15436,78.02134
IN.25,Tamil Nadu,Paramagudi,9.54633,78.5907
IN.21,Odisha,Paralakhemundi,18.77619,84.09504
IN.21,Odisha,Parādīp Garh,20.31641,86.6085
IN.13,Kerala,Pāppinisshēri,11.95655,75.34034
IN.25,Tamil Nadu,Papparapatti,12.22086,78.0592
IN.25,Tamil Nadu,Pāpireddippatti,11.91774,78.36865
IN.37,Chhattisgarh,Pāparhāhāndi,19.33333,82.51667
IN.25,Tamil Nadu,Papanasam,10.92687,79.27056
IN.11,Himachal Pradesh,Pāonta Sāhib,30.43666,77.62462
IN.16,Maharashtra,Panvel,18.98878,73.11013
IN.35,Madhya Pradesh,Panth Pīplia,24.19511,75.00603
IN.35,Madhya Pradesh,Pānsemāl,21.65981,74.69937
IN.25,Tamil Nadu,Panruti,11.77662,79.55269
IN.35,Madhya Pradesh,Panna,24.72094,80.18772
IN.13,Kerala,Ponmana,9.00798,76.52023
IN.10,Haryana,Panipat,29.38747,76.96825
IN.28,West Bengal,Pānihāti,22.69089,88.37404
IN.16,Maharashtra,Panhāla,16.8121,74.11007
IN.19,Karnataka,Pāngāla,13.25,74.75
IN.28,West Bengal,Pandua,23.07492,88.28637
IN.11,Himachal Pradesh,Pāndoh,31.66902,77.05359
IN.35,Madhya Pradesh,Pāndhurnā,21.59556,78.52628
IN.16,Maharashtra,Pandharpur,17.67924,75.33098
IN.16,Maharashtra,Pāndharkawada,20.02108,78.54628
IN.35,Madhya Pradesh,Pandhāna,21.69816,76.22487
IN.19,Karnataka,French Rocks,12.50094,76.67416
IN.37,Chhattisgarh,Pāndātarai,22.18714,81.32815
IN.37,Chhattisgarh,Pandaria,22.22495,81.40994
IN.16,Maharashtra,Pānchgani,17.92449,73.8008
IN.35,Madhya Pradesh,Panara,22.20568,78.55093
IN.25,Tamil Nadu,Panapākkam,12.92102,79.56632
IN.13,Kerala,Panamaram,11.74014,76.07369
IN.33,Goa,Panjim,15.49574,73.82624
IN.25,Tamil Nadu,Pānakkudi,8.322,77.57711
IN.35,Madhya Pradesh,Panāgar,23.28539,79.99509
IN.02,Andhra Pradesh,Pāmūru,15.09633,79.41174
IN.12,Jammu and Kashmir,Pāmpur,34.01515,74.91895
IN.10,Haryana,Palwal,28.14469,77.32546
IN.21,Odisha,Pālūru,19.46667,85.13333
IN.35,Madhya Pradesh,Palsud,21.8262,74.96908
IN.40,Telangana,Pāloncha,17.60184,80.70509
IN.25,Tamil Nadu,Palani,10.45034,77.5209
IN.02,Andhra Pradesh,Palmaner,13.2,78.74725
IN.25,Tamil Nadu,Pallippatti,11.9399,78.40161
IN.25,Tamil Nadu,Pallipattu,13.3386,79.44489
IN.25,Tamil Nadu,Pallikonda,12.90518,78.9427
IN.02,Andhra Pradesh,Pallevāda,16.5779,81.29463
IN.33,Goa,Palle,15.46667,74.08333
IN.25,Tamil Nadu,Pallāvaram,12.96796,80.15025
IN.25,Tamil Nadu,Pallattūr,10.14609,78.80309
IN.25,Tamil Nadu,Pallappatti,10.72057,77.87951
IN.21,Odisha,Pāl Laharā,21.43354,85.19184
IN.25,Tamil Nadu,Palladam,10.99175,77.28633
IN.02,Andhra Pradesh,Pālkonda,18.60374,83.75568
IN.09,Gujarat,Pāliyād,22.25757,71.56024
IN.09,Gujarat,Pālitāna,21.52519,71.82309
IN.36,Uttar Pradesh,Paliā Kalān,28.43205,80.58137
IN.24,Rajasthan,Pāli,25.77276,73.32335
IN.36,Uttar Pradesh,Pāli,24.49188,78.41617
IN.35,Madhya Pradesh,Pāli,23.36453,81.04374
IN.37,Chhattisgarh,Pāli,22.3775,82.32588
IN.16,Maharashtra,Pāli,18.53797,73.22218
IN.13,Kerala,Palakkad,10.77319,76.65366
IN.16,Maharashtra,Pālghar,19.69693,72.76543
IN.35,Madhya Pradesh,Palera,25.02013,79.22818
IN.03,Assam,Palāsbāri,26.12388,91.53974
IN.02,Andhra Pradesh,Palāsa,18.77257,84.41012
IN.37,Chhattisgarh,Palāri,21.53633,82.15864
IN.09,Gujarat,Pālanpur,24.17128,72.43827
IN.11,Himachal Pradesh,Pālampur,32.11453,76.55681
IN.25,Tamil Nadu,Pālamedu,10.10501,78.11336
IN.02,Andhra Pradesh,Palakollu,16.5167,81.73
IN.25,Tamil Nadu,Pālakkodu,12.30696,78.07022
IN.24,Rajasthan,Pākhar,27.11743,76.91091
IN.38,Jharkhand,Pakur,24.63925,87.84239
IN.02,Andhra Pradesh,Pākāla,13.44903,79.11493
IN.16,Maharashtra,Paithan,19.47506,75.38558
IN.23,Punjab,Pail,30.72131,76.06046
IN.36,Uttar Pradesh,Pahāsu,28.1722,78.06376
IN.12,Jammu and Kashmir,Pahalgam,34.01592,75.31899
IN.36,Uttar Pradesh,Padrauna,26.90403,83.98087
IN.09,Gujarat,Padra,22.2398,73.08451
IN.21,Odisha,Padmapur,21.0,83.06667
IN.25,Tamil Nadu,Padmanābhapuram,8.24462,77.32581
IN.25,Tamil Nadu,Pādiyanallūr,13.20037,80.17606
IN.16,Maharashtra,Padghe,19.36695,73.17581
IN.09,Gujarat,Paddhari,22.43654,70.60162
IN.24,Rajasthan,Padampur,29.70885,73.62539
IN.21,Odisha,Padampur,20.99932,83.06325
IN.41,Ladakh,Padam,33.46659,76.88488
IN.36,Uttar Pradesh,Pachperwa,27.51234,82.64297
IN.16,Maharashtra,Pāchora,20.66727,75.35305
IN.35,Madhya Pradesh,Pachor,23.70982,76.73387
IN.35,Madhya Pradesh,Pachmarhi,22.46791,78.43312
IN.25,Tamil Nadu,Ovari Paravarnattam,8.27741,77.89146
IN.13,Kerala,Ottapalam,10.7735,76.37758
IN.16,Maharashtra,Dharashiv,18.18158,76.03889
IN.35,Madhya Pradesh,Orchha,25.35192,78.64033
IN.25,Tamil Nadu,Orathanadu,10.62324,79.25494
IN.36,Uttar Pradesh,Oran,25.36882,80.7423
IN.36,Uttar Pradesh,Orai,25.99023,79.45334
IN.02,Andhra Pradesh,Ongole,15.50357,80.04454
IN.25,Tamil Nadu,Omalur,11.74099,78.04559
IN.09,Gujarat,Olpād,21.33649,72.75161
IN.09,Gujarat,Okha,22.46756,69.07002
IN.16,Maharashtra,Ozar,20.09473,73.92816
IN.25,Tamil Nadu,Odugattūr,12.76793,78.88304
IN.28,West Bengal,Odlābāri,26.83644,88.62943
IN.09,Gujarat,Od,22.62104,73.11725
IN.34,Bihar,Obra,24.89103,84.37423
IN.36,Uttar Pradesh,Obra,24.41863,82.98797
IN.19,Karnataka,Nyāmti,14.14869,75.57641
IN.02,Andhra Pradesh,Nūzvīd,16.78854,80.84593
IN.33,Goa,Nuvem,15.31738,73.93873
IN.23,Punjab,Nūrpur Kalān,31.16667,76.48333
IN.11,Himachal Pradesh,Nūrpur,32.3015,75.88481
IN.36,Uttar Pradesh,Nūrpur,29.14956,78.4084
IN.23,Punjab,Nūrmahal,31.09662,75.59386
IN.03,Assam,Numāligarh,26.62249,93.72225
IN.10,Haryana,Nūh,28.10296,77.00144
IN.21,Odisha,Nūāhatā,20.83586,85.23411
IN.24,Rajasthan,Nūa,28.04388,75.27189
IN.21,Odisha,Nowrangapur,19.23114,82.54826
IN.03,Assam,Nagaon,26.35,92.66667
IN.35,Madhya Pradesh,Nowgong,25.06136,79.44125
IN.31,Mizoram,North Vanlaiphai,23.13227,93.06532
IN.03,Assam,North Lakhimpur,27.23517,94.10357
IN.03,Assam,North Guwāhāti,26.19749,91.7202
IN.18,Meghalaya,Nongstoin,25.51704,91.26484
IN.18,Meghalaya,Nongpoh,25.9023,91.87694
IN.24,Rajasthan,Nokha,27.56155,73.47141
IN.24,Rajasthan,Nohar,29.18292,74.77064
IN.23,Punjab,Nohan,31.03433,76.57099
IN.38,Jharkhand,Noāmundi,22.16094,85.50416
IN.16,Maharashtra,Nizāmpur,21.11277,74.33067
IN.36,Uttar Pradesh,Nizāmābād,26.05295,83.05787
IN.40,Telangana,Nizāmābād,18.67154,78.0988
IN.35,Madhya Pradesh,Niwas,23.04574,80.44469
IN.36,Uttar Pradesh,Niwāri,28.87611,77.5382
IN.10,Haryana,Nīsang,29.69229,76.75464
IN.38,Jharkhand,Nirsā,23.78438,86.70692
IN.34,Bihar,Nirmāli,26.31397,86.58537
IN.40,Telangana,Nirmal,19.09685,78.34407
IN.16,Maharashtra,Nipāni,16.399,74.38285
IN.24,Rajasthan,Neemrana,27.99193,76.38543
IN.24,Rajasthan,Neem ka Thana,27.73976,75.78652
IN.24,Rajasthan,Nīmbāhera,24.62166,74.67999
IN.21,Odisha,Nimāparha,20.05756,86.00436
IN.24,Rajasthan,Nīmāj,26.14995,74.00094
IN.10,Haryana,Nīlokheri,29.83671,76.93191
IN.13,Kerala,Nīlēshwar,12.25953,75.1352
IN.16,Maharashtra,Nilanga,18.11675,76.75279
IN.13,Kerala,Nilambūr,11.27271,76.22571
IN.25,Tamil Nadu,Nilakottai,10.165,77.85024
IN.21,Odisha,Nilagiri,21.46235,86.76794
IN.36,Uttar Pradesh,Nihtaur,29.32416,78.38724
IN.25,Tamil Nadu,Needamangalam,10.77378,79.41875
IN.02,Andhra Pradesh,Nidadavole,16.90572,81.67222
IN.36,Uttar Pradesh,Nichlaul,27.31247,83.7253
IN.31,Mizoram,Ngūr,23.53798,93.3732
IN.25,Tamil Nadu,Neyyūr,8.19829,77.30379
IN.13,Kerala,Neyyāttinkara,8.39854,77.08586
IN.25,Tamil Nadu,Neyveli,11.60877,79.4994
IN.25,Tamil Nadu,Neykuppai,10.2214,78.53602
IN.07,Delhi,New Delhi,28.62137,77.2148
IN.38,Jharkhand,Neturhāt,23.47457,84.2678
IN.33,Goa,Nerul,15.51031,73.78087
IN.25,Tamil Nadu,Nerinjippettai,11.65433,77.75862
IN.16,Maharashtra,Neral,19.02475,73.31688
IN.16,Maharashtra,Ner,20.48971,77.86632
IN.35,Madhya Pradesh,Nepānagar,21.4538,76.39335
IN.02,Andhra Pradesh,Nellore,14.44992,79.98697
IN.02,Andhra Pradesh,Nellimarla,18.15619,83.44727
IN.25,Tamil Nadu,Nellikkuppam,11.77554,79.67016
IN.19,Karnataka,Nelamangala,13.09978,77.39364
IN.13,Kerala,Nedumangād,8.60267,77.00139
IN.03,Assam,Nāzirā,26.91649,94.73611
IN.25,Tamil Nadu,Nazareth,8.56102,77.97214
IN.02,Andhra Pradesh,Nāyudupet,13.90742,79.89465
IN.21,Odisha,Nayāgarh,20.12882,85.09626
IN.29,Sikkim,Naya Bāzār,27.13082,88.23972
IN.23,Punjab,Nawanshahr,31.1245,76.11613
IN.37,Chhattisgarh,Nawāpāra,20.97173,81.85884
IN.12,Jammu and Kashmir,Nawānshahr,32.76505,74.52772
IN.24,Rajasthan,Nawalgarh,27.85161,75.27384
IN.24,Rajasthan,Niwai,26.36073,75.91836
IN.34,Bihar,Nawāda,24.8867,85.54364
IN.36,Uttar Pradesh,Nawābganj,26.49716,80.30934
IN.36,Uttar Pradesh,Nawābganj,28.54103,79.63462
IN.36,Uttar Pradesh,Nawābganj,26.93129,81.19841
IN.36,Uttar Pradesh,Nawābganj,26.86396,82.14103
IN.24,Rajasthan,Nāwa,27.0195,75.00226
IN.09,Gujarat,Navsari,20.94237,72.92467
IN.33,Goa,Navelim,15.53333,73.98333
IN.33,Goa,Navelim,15.25885,73.96637
IN.16,Maharashtra,Navāpur,21.16157,73.79399
IN.19,Karnataka,Navalgund,15.55877,75.35305
IN.28,West Bengal,Navadwīp,23.4067,88.36861
IN.36,Uttar Pradesh,Nautanwa,27.42752,83.41789
IN.12,Jammu and Kashmir,Nāushahra,33.15712,74.24012
IN.34,Bihar,Naugachhia,25.38807,87.09906
IN.34,Bihar,Naubatpur,25.49856,84.96084
IN.25,Tamil Nadu,Nāttarasankottai,9.86905,78.55305
IN.25,Tamil Nadu,Natham,10.22776,78.22969
IN.24,Rajasthan,Nāthdwāra,24.93805,73.82392
IN.16,Maharashtra,Nāteputa,17.89895,74.75222
IN.35,Madhya Pradesh,Nasrullāhganj,22.6837,77.27069
IN.34,Bihar,Nāsriganj,25.0514,84.32839
IN.40,Telangana,Nāspur,18.84577,79.46165
IN.24,Rajasthan,Nasīrābād,26.30473,74.73364
IN.16,Maharashtra,Nashik,19.99727,73.79096
IN.35,Madhya Pradesh,Narwar,25.6439,77.9129
IN.10,Haryana,Narwāna,29.59903,76.11927
IN.02,Andhra Pradesh,Narsīpatnam,17.66709,82.61245
IN.40,Telangana,Nārsingi,18.04468,78.42516
IN.35,Madhya Pradesh,Narsinghgarh,23.70758,77.09319
IN.35,Madhya Pradesh,Narsimhapur,22.94936,79.18357
IN.40,Telangana,Narsampet,17.92786,79.89227
IN.23,Punjab,Narot Mehra,32.26726,75.56469
IN.52,Dadra and Nagar Haveli and Daman and Diu,Naroli,20.27354,72.94167
IN.09,Gujarat,Naroda,23.07041,72.65702
IN.10,Haryana,Nārnaund,29.22047,76.14278
IN.10,Haryana,Narnaul,28.04444,76.10833
IN.16,Maharashtra,Narkher,21.47231,78.53415
IN.34,Bihar,Narkatiāganj,27.10383,84.46185
IN.09,Gujarat,Nari,21.77263,72.07279
IN.37,Chhattisgarh,Narharpur,20.44892,81.62004
IN.19,Karnataka,Nargund,15.72299,75.38666
IN.39,Uttarakhand,Narendranagar,30.16173,78.28712
IN.07,Delhi,Narela,28.85267,77.09288
IN.19,Karnataka,Naregal,15.57316,75.80805
IN.40,Telangana,Nārāyanpet,16.74799,77.4954
IN.40,Telangana,Nārāyankher,18.03413,77.77284
IN.10,Haryana,Naraingarh,30.47798,77.12804
IN.35,Madhya Pradesh,Nārāyangarh,24.27083,75.05007
IN.02,Andhra Pradesh,Nārāyanavanam,13.42565,79.58881
IN.25,Tamil Nadu,Nāravārikuppam,13.19133,80.18473
IN.36,Uttar Pradesh,Naraura,28.20147,78.38723
IN.36,Uttar Pradesh,Narauli,28.48547,78.71484
IN.02,Andhra Pradesh,Narasingāpuram,13.60759,79.31652
IN.19,Karnataka,Narasimharājapura,13.61075,75.512
IN.02,Andhra Pradesh,Narasaraopet,16.23488,80.04927
IN.02,Andhra Pradesh,Narasapur,16.43425,81.69845
IN.02,Andhra Pradesh,Narasannapeta,18.41428,84.04463
IN.13,Kerala,Narakal,10.03833,76.2221
IN.37,Chhattisgarh,Nārāinpur,19.71794,81.24437
IN.35,Madhya Pradesh,Naraini,25.19033,80.475
IN.24,Rajasthan,Naraina,26.79069,75.20608
IN.24,Rajasthan,Napāsar,27.96059,73.55913
IN.35,Madhya Pradesh,Nānpur,22.27023,74.52712
IN.36,Uttar Pradesh,Nānpāra,27.86459,81.50036
IN.25,Tamil Nadu,Nannilam,10.87933,79.61062
IN.19,Karnataka,Nanjangūd,12.11764,76.68397
IN.25,Tamil Nadu,Nanguneri,8.49326,77.65806
IN.07,Delhi,Nāngloi Jāt,28.67957,77.06799
IN.25,Tamil Nadu,Nangavalli,11.76189,77.89093
IN.23,Punjab,Nangal,31.38966,76.37574
IN.02,Andhra Pradesh,Nandyāl,15.47799,78.4836
IN.16,Maharashtra,Nandurbar,21.36671,74.24051
IN.16,Maharashtra,Nāndūra,20.83417,76.45924
IN.02,Andhra Pradesh,Nandikotkūr,15.85668,78.26569
IN.02,Andhra Pradesh,Nandigāma,16.7717,80.28596
IN.36,Uttar Pradesh,Nandgaon,27.71102,77.38653
IN.16,Maharashtra,Nāndgaon,20.3068,74.65501
IN.19,Karnataka,Nandgad,15.57746,74.56899
IN.16,Maharashtra,Nanded,19.16023,77.31497
IN.36,Uttar Pradesh,Nanauta,29.71215,77.41728
IN.03,Assam,Nāmrup,27.19395,95.31929
IN.35,Madhya Pradesh,Namli,23.46115,75.06036
IN.29,Sikkim,Namchi,27.16494,88.3638
IN.25,Tamil Nadu,Nambutalai,9.72766,79.00707
IN.25,Tamil Nadu,Nambiyūr,11.35811,77.32115
IN.25,Tamil Nadu,Nāmakkal,11.22126,78.16524
IN.25,Tamil Nadu,Nāmagiripettai,11.45513,78.26818
IN.35,Madhya Pradesh,Nal Khera,23.83602,76.24316
IN.09,Gujarat,Naliya,23.26058,68.82655
IN.28,West Bengal,Nalhāti,24.29704,87.82899
IN.40,Telangana,Nalgonda,17.05439,79.26707
IN.16,Maharashtra,Naldurg,17.81667,76.28182
IN.03,Assam,Nalbāri,26.43937,91.44041
IN.11,Himachal Pradesh,Nālāgarh,31.04168,76.72285
IN.36,Uttar Pradesh,Nakūr,29.91964,77.30438
IN.28,West Bengal,Naksalbāri,26.6827,88.22001
IN.40,Telangana,Nakrekal,17.16259,79.42754
IN.23,Punjab,Nakodar,31.12586,75.47508
IN.36,Uttar Pradesh,Najībābād,29.61194,78.34274
IN.07,Delhi,Najafgarh,28.60922,76.97982
IN.24,Rajasthan,Nainwa,25.77145,75.84978
IN.35,Madhya Pradesh,Nainpur,22.42996,80.10561
IN.39,Uttarakhand,Naini Tāl,29.39743,79.44686
IN.28,West Bengal,Naihāti,22.89396,88.41521
IN.35,Madhya Pradesh,Naīgarhi,24.78686,81.77868
IN.03,Assam,Nahorkatiya,27.286,95.328
IN.11,Himachal Pradesh,Nāhan,30.56029,77.29426
IN.12,Jammu and Kashmir,Nagrota,32.80106,74.91324
IN.11,Himachal Pradesh,Nagrota,32.0571,76.09139
IN.37,Chhattisgarh,Nagri,20.34646,81.95998
IN.36,Uttar Pradesh,Nagrām,26.61872,81.14043
IN.16,Maharashtra,Nagpur,21.14631,79.08491
IN.16,Maharashtra,Nāgothana,18.54225,73.13493
IN.35,Madhya Pradesh,Nāgod,24.56924,80.58809
IN.02,Andhra Pradesh,Nāgireddipalli,14.27005,79.10131
IN.20,Nagaland,Naginimora,26.81492,94.81084
IN.36,Uttar Pradesh,Nagīna,29.44433,78.43646
IN.10,Haryana,Nagīna,27.91717,76.98207
IN.25,Tamil Nadu,Nāgercoil,8.17899,77.43227
IN.35,Madhya Pradesh,Nagda,23.45834,75.41759
IN.24,Rajasthan,Nāgaur,27.20201,73.73394
IN.40,Telangana,Nāgar Karnūl,16.4821,78.32471
IN.02,Andhra Pradesh,Nagari,13.32139,79.58557
IN.11,Himachal Pradesh,Nagar,32.13808,77.17393
IN.24,Rajasthan,Nagar,27.42397,77.09922
IN.25,Tamil Nadu,Nagapattinam,10.76377,79.84313
IN.19,Karnataka,Nāgamangala,12.81939,76.75456
IN.02,Andhra Pradesh,Nagalapuram,13.38836,79.79623
IN.25,Tamil Nadu,Naduvattam,11.48075,76.54365
IN.13,Kerala,Naduvannūr,11.48772,75.77511
IN.36,Uttar Pradesh,Nadīgaon,26.10784,79.02283
IN.09,Gujarat,Nadiād,22.69385,72.86157
IN.24,Rajasthan,Nādbai,27.22288,77.19569
IN.11,Himachal Pradesh,Nādaun,31.78303,76.3431
IN.13,Kerala,Nādāpuram,11.68465,75.65493
IN.34,Bihar,Nabīnagar,24.60681,84.12624
IN.23,Punjab,Nābha,30.37577,76.15292
IN.19,Karnataka,Mysuru,12.29791,76.63925
IN.34,Bihar,Muzaffarpur,26.12259,85.39055
IN.36,Uttar Pradesh,Muzaffarnagar,29.47091,77.70332
IN.13,Kerala,Mūvattupula,9.98493,76.57728
IN.25,Tamil Nadu,Muttūr,11.04637,77.7363
IN.25,Tamil Nadu,Muthupet,10.39505,79.49353
IN.10,Haryana,Mustafābād,30.2022,77.14873
IN.39,Uttarakhand,Mussoorie,30.45498,78.07068
IN.25,Tamil Nadu,Musiri,10.95299,78.44427
IN.38,Jharkhand,Mushābani,22.51135,86.45713
IN.36,Uttar Pradesh,Musāfir-Khāna,26.37837,81.79607
IN.35,Madhya Pradesh,Murwāra,23.83776,80.39405
IN.16,Maharashtra,Murud,18.32817,72.9621
IN.16,Maharashtra,Murtajāpur,20.73299,77.36694
IN.28,West Bengal,Murshidābād,24.1839,88.27171
IN.36,Uttar Pradesh,Mursān,27.57788,77.94091
IN.34,Bihar,Murlīganj,25.8969,86.99577
IN.23,Punjab,Morinda,30.79014,76.49883
IN.28,West Bengal,Muri,23.37074,85.86236
IN.16,Maharashtra,Murgūd,16.39604,74.19142
IN.16,Maharashtra,Murbād,19.25395,73.38993
IN.28,West Bengal,Muragācha,23.53631,88.39425
IN.36,Uttar Pradesh,Murādnagar,28.78069,77.49865
IN.13,Kerala,Munnar,10.08818,77.06239
IN.19,Karnataka,Munirābād,15.30928,76.3383
IN.34,Bihar,Munger,25.37459,86.47455
IN.37,Chhattisgarh,Mungeli,22.06566,81.68543
IN.35,Madhya Pradesh,Mungaoli,24.40837,78.09588
IN.24,Rajasthan,Mūndwa,27.0631,73.82304
IN.09,Gujarat,Mundra,22.83918,69.7219
IN.35,Madhya Pradesh,Mundi,22.06693,76.49326
IN.19,Karnataka,Mundgod,14.97144,75.03658
IN.19,Karnataka,Mundargi,15.20677,75.8839
IN.35,Madhya Pradesh,Multai,21.77463,78.25756
IN.19,Karnataka,Mūlki,13.09101,74.79353
IN.19,Karnataka,Mulgund,15.2807,75.52132
IN.19,Karnataka,Mulbāgal,13.16352,78.39346
IN.13,Kerala,Muluppilagadu,11.79788,75.45111
IN.25,Tamil Nadu,Mūlanūr,10.79426,77.7115
IN.25,Tamil Nadu,Mūlaikkaraippatti,8.54541,77.76792
IN.16,Maharashtra,Mūl,20.06987,79.67826
IN.23,Punjab,Muktsar,30.47426,74.5166
IN.07,Delhi,Mukmelpur,28.79177,77.16296
IN.16,Maharashtra,Mukher,18.70636,77.36795
IN.23,Punjab,Mukeriān,31.95394,75.61716
IN.36,Uttar Pradesh,Muhammadābād,27.30895,79.43252
IN.36,Uttar Pradesh,Muhammadābād,26.03404,83.38114
IN.36,Uttar Pradesh,Muhammadābād,25.61907,83.75576
IN.38,Jharkhand,Mugma,23.77015,86.72746
IN.36,Uttar Pradesh,Mughal Sarāi,25.28307,83.11968
IN.25,Tamil Nadu,Mudukulathur,9.34169,78.51388
IN.23,Punjab,Mudki,30.78005,74.88106
IN.16,Maharashtra,Mudkhed,19.15657,77.50304
IN.19,Karnataka,Mudgere,13.13353,75.6416
IN.19,Karnataka,Mudhol,16.33354,75.28305
IN.19,Karnataka,Mudgal,16.01191,76.44203
IN.19,Karnataka,Muddebihāl,16.33782,76.13173
IN.02,Andhra Pradesh,Muddanūru,14.68718,78.39309
IN.19,Karnataka,Mūdbidri,13.06653,74.99525
IN.23,Punjab,Mubārikpur,30.61464,76.85586
IN.36,Uttar Pradesh,Mubarakpur,26.08866,83.29088
IN.16,Maharashtra,Mowād,21.46475,78.45103
IN.34,Bihar,Mothīhāri,26.64862,84.91656
IN.36,Uttar Pradesh,Moth,25.72595,78.95029
IN.09,Gujarat,Morwa,22.90469,73.83912
IN.16,Maharashtra,Morsi,21.3403,78.01258
IN.33,Goa,Morjim,15.63097,73.73903
IN.35,Madhya Pradesh,Morena,26.49892,77.99534
IN.09,Gujarat,Morvi,22.81731,70.8377
IN.35,Madhya Pradesh,Morār,26.2264,78.22482
IN.03,Assam,Morānha,27.18735,94.91557
IN.16,Maharashtra,Moram,17.78812,76.47077
IN.24,Rajasthan,Morak,24.7266,75.95576
IN.36,Uttar Pradesh,Morādābād,28.83893,78.77684
IN.20,Nagaland,Mon,26.73583,95.05841
IN.20,Nagaland,Mokokchūng,26.3248,94.51834
IN.34,Bihar,Mokameh,25.39662,85.9219
IN.17,Manipur,Moirāng,24.4975,93.77791
IN.33,Goa,Moira,15.60256,73.83902
IN.16,Maharashtra,Mohpa,21.31012,78.82969
IN.34,Bihar,Mohiuddinnagar,25.57374,85.66944
IN.35,Madhya Pradesh,Mohgaon,21.63941,78.73638
IN.25,Tamil Nadu,Mohanūr,11.05936,78.13965
IN.36,Uttar Pradesh,Mohanpur,28.25261,80.24498
IN.21,Odisha,Mohana,19.44273,84.26128
IN.36,Uttar Pradesh,Mohān,26.78008,80.67497
IN.23,Punjab,Moga,30.81383,75.16878
IN.09,Gujarat,Modāsa,23.46253,73.29857
IN.24,Rajasthan,Meethari Marwar,27.57615,74.68661
IN.36,Uttar Pradesh,Misrikh,27.43137,80.53157
IN.36,Uttar Pradesh,Mirzāpur,25.1449,82.56534
IN.28,West Bengal,Mirik,26.88817,88.19007
IN.40,Telangana,Miryalaguda,16.8722,79.56247
IN.36,Uttar Pradesh,Mīrganj,28.54012,79.20817
IN.36,Uttar Pradesh,Mīrānpur Katra,28.02963,79.66778
IN.36,Uttar Pradesh,Mīrānpur,29.29026,77.94939
IN.25,Tamil Nadu,Mīnjūr,13.27951,80.25815
IN.36,Uttar Pradesh,Milak,28.61031,79.16997
IN.35,Madhya Pradesh,Mihona,26.28373,78.98048
IN.30,Arunachal Pradesh,Miāo,27.49335,96.18118
IN.35,Madhya Pradesh,Mhow,22.5589,75.76543
IN.16,Maharashtra,Mhaswad,17.63359,74.78773
IN.16,Maharashtra,Mhasla,18.1334,73.11162
IN.25,Tamil Nadu,Mettur,11.78796,77.8008
IN.25,Tamil Nadu,Mettupalayam,11.29971,76.93485
IN.25,Tamil Nadu,Mettuppālaiyam,11.16806,78.44944
IN.24,Rajasthan,Merta,26.64859,74.03414
IN.13,Kerala,Mennānyam,11.5579,75.75964
IN.09,Gujarat,Mendarda,21.32112,70.44078
IN.28,West Bengal,Memāri,23.17647,88.09749
IN.25,Tamil Nadu,Melur,10.03241,78.3393
IN.19,Karnataka,Melukote,12.66258,76.64861
IN.34,Bihar,Mehsi,26.35574,85.09251
IN.36,Uttar Pradesh,Mehndāwal,26.97579,83.10995
IN.36,Uttar Pradesh,Mehnagar,25.87889,83.11611
IN.16,Maharashtra,Mehkar,20.1505,76.56841
IN.09,Gujarat,Meghraj,23.49805,73.51352
IN.36,Uttar Pradesh,Meerut,28.98002,77.70636
IN.28,West Bengal,Medinīpur,22.42114,87.32257
IN.16,Maharashtra,Medha,17.79414,73.82867
IN.40,Telangana,Medchal,17.62972,78.48139
IN.40,Telangana,Medak,18.04531,78.26078
IN.25,Tamil Nadu,Mayiladuthurai,11.10354,79.655
IN.28,West Bengal,Māyāpur,22.41667,88.11667
IN.17,Manipur,Mayāng Imphāl,24.60998,93.88873
IN.19,Karnataka,Māyakonda,14.28894,76.08305
IN.01,Andaman and Nicobar,Māyābandar,12.90954,92.90348
IN.36,Uttar Pradesh,Mawāna,29.10288,77.92199
IN.13,Kerala,Mavoor,11.26667,75.91667
IN.24,Rajasthan,Maoli,24.78348,73.98389
IN.13,Kerala,Māvelikara,9.25929,76.55642
IN.36,Uttar Pradesh,Maurānwān,26.42876,80.88008
IN.23,Punjab,Maur,30.08333,75.25
IN.16,Maharashtra,Mauda,21.14575,79.39794
IN.35,Madhya Pradesh,Mauganj,24.66721,81.87339
IN.36,Uttar Pradesh,Maudaha,25.68312,80.11419
IN.36,Uttar Pradesh,Mau Aimma,25.69515,81.92336
IN.35,Madhya Pradesh,Mau,26.26584,78.67108
IN.36,Uttar Pradesh,Mau,25.94167,83.56111
IN.25,Tamil Nadu,Māttūr,11.32147,79.20245
IN.25,Tamil Nadu,Mattigiri,12.69795,77.80832
IN.13,Kerala,Mattanur,11.93018,75.57152
IN.36,Uttar Pradesh,Mathura,27.5035,77.67215
IN.16,Maharashtra,Mātherān,18.98281,73.2652
IN.36,Uttar Pradesh,Mataundh,25.43594,80.15653
IN.28,West Bengal,Mātābhānga,26.34197,89.21555
IN.25,Tamil Nadu,Masinigudi,11.56831,76.64087
IN.52,Dadra and Nagar Haveli and Daman and Diu,Mashāt,20.24514,73.00841
IN.34,Bihar,Masaurhi Buzurg,25.35417,85.03195
IN.52,Dadra and Nagar Haveli and Daman and Diu,Marwad,20.43764,72.83224
IN.03,Assam,Maroa,26.35114,91.45094
IN.37,Chhattisgarh,Māro,21.86665,81.85888
IN.33,Goa,Mormugao,15.38914,73.81491
IN.02,Andhra Pradesh,Mārkāpur,15.73534,79.26848
IN.03,Assam,Mariāni,26.65725,94.31529
IN.36,Uttar Pradesh,Mariāhu,25.60404,82.60379
IN.34,Bihar,Marhaura,25.97349,84.86796
IN.03,Assam,Margherita,27.28482,95.66796
IN.25,Tamil Nadu,Mārāndahalli,12.38826,78.00316
IN.25,Tamil Nadu,Marakkanam,12.19214,79.94193
IN.13,Kerala,Marayur,10.27641,77.16205
IN.36,Uttar Pradesh,Mārahra,27.7368,78.56891
IN.33,Goa,Mapusa,15.59154,73.80898
IN.16,Maharashtra,Manwath,19.30133,76.49735
IN.19,Karnataka,Mānvi,15.99126,77.05034
IN.40,Telangana,Manthani,18.65087,79.66501
IN.16,Maharashtra,Mansar,21.39602,79.2635
IN.23,Punjab,Mānsa,29.98844,75.40167
IN.09,Gujarat,Mānsa,23.42564,72.65739
IN.35,Madhya Pradesh,Mānpur,22.43151,75.62107
IN.16,Maharashtra,Manor,19.7244,72.90966
IN.24,Rajasthan,Manohar Thāna,24.24,76.80182
IN.24,Rajasthan,Manoharpur,27.29769,75.9495
IN.26,Tripura,Manoharpur,23.72154,91.21257
IN.38,Jharkhand,Manoharpur,22.37456,85.19234
IN.25,Tamil Nadu,Mannargudi,10.66626,79.45064
IN.13,Kerala,Mannārakkāt,10.99223,76.46418
IN.16,Maharashtra,Manmād,20.25334,74.43755
IN.09,Gujarat,Mānkuwa,23.20986,69.56758
IN.36,Uttar Pradesh,Mankāpur,27.05189,82.22961
IN.18,Meghalaya,Mankāchar,25.53347,89.86373
IN.16,Maharashtra,Majalgaon,19.15513,76.20992
IN.36,Uttar Pradesh,Manjhanpur,25.53046,81.37566
IN.13,Kerala,Manjēshvar,12.71287,74.88857
IN.13,Kerala,Manjeri,11.12018,76.11996
IN.19,Karnataka,Manipal,13.35,74.78333
IN.10,Haryana,Mani Mājra,30.71397,76.83824
IN.36,Uttar Pradesh,Mānikpur,25.06083,81.09961
IN.34,Bihar,Manihāri,25.33891,87.61998
IN.36,Uttar Pradesh,Maniar,25.98546,84.17233
IN.16,Maharashtra,Māngvādi,18.43135,73.86002
IN.16,Maharashtra,Mangrūl Pīr,20.31379,77.34178
IN.24,Rajasthan,Māngrol,25.33061,76.50973
IN.09,Gujarat,Māngrol,21.12268,70.11484
IN.35,Madhya Pradesh,Mānglya,22.81461,75.92585
IN.39,Uttarakhand,Manglaur,29.79094,77.87836
IN.35,Madhya Pradesh,Mangawān,24.66754,81.54644
IN.29,Sikkim,Mangan,27.50965,88.52206
IN.16,Maharashtra,Mangalvedha,17.51046,75.44713
IN.19,Karnataka,Mangaluru,12.91723,74.85603
IN.03,Assam,Mangaldai,26.44212,92.03047
IN.13,Kerala,Mangalapādi,12.66868,74.91039
IN.25,Tamil Nadu,Mangalam,11.63684,79.28062
IN.25,Tamil Nadu,Mangalam,9.76473,78.64037
IN.02,Andhra Pradesh,Mangalagiri,16.43083,80.56815
IN.34,Bihar,Maner,25.64602,84.87291
IN.19,Karnataka,Mandya,12.5223,76.89746
IN.09,Gujarat,Māndvi,22.83282,69.35237
IN.09,Gujarat,Māndvi,21.25526,73.30412
IN.38,Jharkhand,Māndu,23.79459,85.46872
IN.35,Madhya Pradesh,Māndu,22.34125,75.4013
IN.35,Madhya Pradesh,Mandsaur,24.07184,75.06986
IN.33,Goa,Mandrem,15.65337,73.72272
IN.35,Madhya Pradesh,Māndleshwar,22.17598,75.65995
IN.35,Madhya Pradesh,Mandlā,22.59879,80.37115
IN.10,Haryana,Mandi Dabwāli,29.96633,74.70025
IN.11,Himachal Pradesh,Mandi,31.71194,76.93273
IN.10,Haryana,Mandholi Kalān,28.7085,75.68296
IN.36,Uttar Pradesh,Mandāwar,29.48655,78.12732
IN.24,Rajasthan,Mandāwar,27.86374,76.54999
IN.24,Rajasthan,Mandāwa,28.05541,75.14834
IN.02,Andhra Pradesh,Mandasa,18.8683,84.46296
IN.02,Andhra Pradesh,Mandapeta,16.86254,81.92921
IN.25,Tamil Nadu,Mandapam,9.27571,79.12362
IN.24,Rajasthan,Māndalgarh,25.19407,75.07215
IN.24,Rajasthan,Māndal,25.44126,74.56979
IN.09,Gujarat,Māndal,23.28865,71.91854
IN.16,Maharashtra,Mānda,19.56843,72.79722
IN.40,Telangana,Mancherial,18.87074,79.42863
IN.16,Maharashtra,Manchar,19.00436,73.94346
IN.35,Madhya Pradesh,Manāwar,22.23566,75.08917
IN.25,Tamil Nadu,Manavālakurichi,8.14776,77.30552
IN.09,Gujarat,Mānāvadar,21.49813,70.13775
IN.35,Madhya Pradesh,Manāsa,24.47764,75.14095
IN.25,Tamil Nadu,Manapparai,10.60772,78.42582
IN.25,Tamil Nadu,Manamadurai,9.67318,78.47096
IN.25,Tamil Nadu,Manalūrpettai,12.00788,79.09184
IN.11,Himachal Pradesh,Manāli,32.2574,77.17481
IN.25,Tamil Nadu,Manali,13.16667,80.26667
IN.10,Haryana,Manethi,28.15824,76.38904
IN.31,Mizoram,Mamit,23.92703,92.48968
IN.25,Tamil Nadu,Mahabalipuram,12.62091,80.19331
IN.16,Maharashtra,Mālvan,16.05981,73.4629
IN.19,Karnataka,Mālūr,13.00322,77.93798
IN.24,Rajasthan,Malsīsar,28.35365,75.29749
IN.24,Rajasthan,Mālpura,26.2838,75.36458
IN.09,Gujarat,Mālpur,23.36035,73.46595
IN.19,Karnataka,Malpe,13.34962,74.70394
IN.25,Tamil Nadu,Māllūr,11.54424,78.14078
IN.25,Tamil Nadu,Mallasamudram,11.49333,78.03119
IN.25,Tamil Nadu,Mallāpuram,11.98231,78.24796
IN.38,Jharkhand,Malkera,23.78213,86.28767
IN.16,Maharashtra,Malkāpur,20.88555,76.19932
IN.16,Maharashtra,Malkāpur,16.91999,73.9347
IN.21,Odisha,Malakanagiri,18.36428,81.888
IN.09,Gujarat,Māliya,23.09296,70.75885
IN.36,Uttar Pradesh,Malīhābād,26.92223,80.71078
IN.35,Madhya Pradesh,Malhārgarh,24.28286,74.99024
IN.37,Chhattisgarh,Malhār,21.89275,82.28322
IN.23,Punjab,Māler Kotla,30.5309,75.87949
IN.16,Maharashtra,Malegaon,20.54966,74.53462
IN.19,Karnataka,Malavalli,12.38556,77.06045
IN.23,Punjab,Malout,30.21121,74.4818
IN.23,Punjab,Malaudh,30.63332,75.93565
IN.13,Kerala,Malappuram,11.04199,76.08154
IN.23,Punjab,Malakpur,32.27504,75.58775
IN.24,Rajasthan,Mukandgarh,27.95208,75.22431
IN.03,Assam,Mākum,27.48652,95.43646
IN.35,Madhya Pradesh,Maksi,23.25999,76.14567
IN.35,Madhya Pradesh,Makron,23.50671,76.0748
IN.24,Rajasthan,Makrāna,27.04361,74.72445
IN.23,Punjab,Makhu,31.10335,74.99631
IN.16,Maharashtra,Mākhjan,17.2698,73.50031
IN.23,Punjab,Majītha,31.75711,74.95891
IN.35,Madhya Pradesh,Majholi,23.50114,79.92396
IN.38,Jharkhand,Majhiāon Kalān,24.32431,83.81613
IN.35,Madhya Pradesh,Majhgawān,24.92131,80.80753
IN.34,Bihar,Mairwa,26.23218,84.16349
IN.18,Meghalaya,Mairang,25.56165,91.63602
IN.36,Uttar Pradesh,Mainpuri,27.22857,79.02882
IN.16,Maharashtra,Maindargi,17.45739,76.2932
IN.28,West Bengal,Maināguri,26.56263,88.8204
IN.36,Uttar Pradesh,Mailāni,28.29088,80.3438
IN.35,Madhya Pradesh,Maihar,24.26594,80.76063
IN.03,Assam,Maibong,25.30125,93.13811
IN.24,Rajasthan,Mahwa,27.04594,76.93152
IN.09,Gujarat,Mahuva,21.09007,71.76904
IN.03,Assam,Mahur,25.18305,93.11342
IN.09,Gujarat,Mahudha,22.82082,72.94032
IN.36,Uttar Pradesh,Mahroni,24.58624,78.72771
IN.36,Uttar Pradesh,Maholi,27.66368,80.47371
IN.36,Uttar Pradesh,Mahobā,25.2905,79.87533
IN.36,Uttar Pradesh,Mahmudābād,27.29191,81.11775
IN.28,West Bengal,Mahīshādal,22.18616,87.98072
IN.35,Madhya Pradesh,Mahgawān,26.49471,78.61593
IN.35,Madhya Pradesh,Maheshwar,22.17592,75.58715
IN.09,Gujarat,Mahesāna,23.59864,72.38472
IN.10,Haryana,Mahendragarh,28.26935,76.15253
IN.09,Gujarat,Mahemdāvād,22.82359,72.75551
IN.13,Kerala,Mahē,11.70172,75.53474
IN.40,Telangana,Mahbūbnagar,16.74385,77.98597
IN.40,Telangana,Mahbūbābād,17.59728,80.00207
IN.37,Chhattisgarh,Mahāsamund,21.10743,82.0948
IN.36,Uttar Pradesh,Mahārāganj,27.14456,83.56214
IN.36,Uttar Pradesh,Mahārājganj,26.38126,81.27436
IN.36,Uttar Pradesh,Bishunpur Urf Mahārājganj,26.25914,83.11643
IN.34,Bihar,Mahārājgani,26.11017,84.50365
IN.10,Haryana,Maham,28.96912,76.29495
IN.23,Punjab,Mahalpur,31.36185,76.03774
IN.19,Karnataka,Mahālingpur,16.3888,75.10873
IN.38,Jharkhand,Mahāgama,25.03425,87.31867
IN.16,Maharashtra,Mahād,18.08333,73.41667
IN.36,Uttar Pradesh,Mahāban,27.43262,77.74338
IN.16,Maharashtra,Mahābaleshwar,17.56,73.4
IN.36,Uttar Pradesh,Maghar,26.75586,83.12773
IN.37,Chhattisgarh,Magarlor,20.74945,81.85151
IN.12,Jammu and Kashmir,Māgām,34.09256,74.59016
IN.19,Karnataka,Māgadi,12.95706,77.22374
IN.25,Tamil Nadu,Madurāntakam,12.51167,79.88485
IN.25,Tamil Nadu,Madurai,9.919,78.11953
IN.25,Tamil Nadu,Madukkūr,10.48098,79.39939
IN.25,Tamil Nadu,Madukkarai,10.90568,76.96344
IN.02,Andhra Pradesh,Mādugula,17.91589,82.81578
IN.25,Tamil Nadu,Chennai,13.08784,80.27847
IN.33,Goa,Madkai,15.41416,73.93982
IN.19,Karnataka,Madikeri,12.42602,75.7382
IN.28,West Bengal,Madhyamgram,22.68944,88.44594
IN.38,Jharkhand,Madhupur,24.27419,86.63929
IN.19,Karnataka,Madhugiri,13.66035,77.21239
IN.34,Bihar,Madhubani,26.35367,86.07169
IN.34,Bihar,Madhuban,26.43864,85.13573
IN.36,Uttar Pradesh,Mādhogarh,26.27522,79.1859
IN.35,Madhya Pradesh,Madhogarh,24.56401,80.91126
IN.36,Uttar Pradesh,Mādhoganj,27.11807,80.14058
IN.34,Bihar,Madhepura,25.92127,86.79271
IN.33,Goa,Madgaon,15.27501,73.95786
IN.19,Karnataka,Maddūr,12.58283,77.04294
IN.25,Tamil Nadu,Madattukkulam,10.55869,77.36597
IN.28,West Bengal,Madanpur,23.00589,88.49168
IN.02,Andhra Pradesh,Madanapalle,13.5503,78.50288
IN.02,Andhra Pradesh,Machilīpatnam,16.18747,81.13888
IN.36,Uttar Pradesh,Machhlīshahr,25.68564,82.41106
IN.23,Punjab,Māchhīwāra,30.91557,76.20016
IN.02,Andhra Pradesh,Mācherla,16.47635,79.43533
IN.35,Madhya Pradesh,Māchalpur,24.12767,76.31672
IN.31,Mizoram,Lunglei,22.89247,92.74218
IN.09,Gujarat,Lūnāvāda,23.12841,73.61043
IN.21,Odisha,Loisinga,20.86667,83.51667
IN.23,Punjab,Ludhiana,30.91204,75.85379
IN.36,Uttar Pradesh,Lucknow,26.83928,80.92313
IN.34,Bihar,Luckeesarai,25.1765,86.0947
IN.24,Rajasthan,Losal,27.4,74.91667
IN.37,Chhattisgarh,Lormi,22.27434,81.70181
IN.36,Uttar Pradesh,Loni,28.75143,77.29023
IN.19,Karnataka,Londa,15.46907,74.51906
IN.16,Maharashtra,Lonavla,18.75275,73.40575
IN.16,Maharashtra,Lonar,19.98533,76.52046
IN.16,Maharashtra,Lonand,18.04041,74.18719
IN.16,Maharashtra,Lohogaon,18.59921,73.92701
IN.10,Haryana,Lohāru,28.42993,75.80779
IN.38,Jharkhand,Lohārdagā,23.43305,84.67992
IN.37,Chhattisgarh,Lohāra,21.85,81.13333
IN.16,Maharashtra,Lohāra,20.38983,78.09027
IN.39,Uttarakhand,Lohaghāt,29.40356,80.08965
IN.35,Madhya Pradesh,Lodhīkheda,21.58235,78.85911
IN.19,Karnataka,Lingsugūr,16.15876,76.52174
IN.09,Gujarat,Limodra,21.3554,73.00648
IN.09,Gujarat,Līmkheda,22.83456,73.99213
IN.09,Gujarat,Limbdi,22.56507,71.81076
IN.09,Gujarat,Lilia,21.53678,71.36362
IN.35,Madhya Pradesh,Leteri,24.05979,77.40858
IN.37,Chhattisgarh,Lelanga,22.39197,83.58078
IN.41,Ladakh,Leh,34.16504,77.58402
IN.31,Mizoram,Lawngtlai,22.53254,92.89902
IN.16,Maharashtra,Loha,18.94484,77.11553
IN.36,Uttar Pradesh,Lāwar Khās,29.11091,77.77767
IN.37,Chhattisgarh,Lawan,21.64137,82.34123
IN.35,Madhya Pradesh,Lauri,25.13962,80.00112
IN.23,Punjab,Laungowāl,30.19393,75.68089
IN.16,Maharashtra,Latur,18.39721,76.56784
IN.09,Gujarat,Lāthi,21.7231,71.38843
IN.38,Jharkhand,Lātehār,23.74423,84.49984
IN.16,Maharashtra,Lāsūr,19.94076,74.98487
IN.16,Maharashtra,Lāsalgaon,20.1427,74.23946
IN.36,Uttar Pradesh,Lar,26.20394,83.96906
IN.39,Uttarakhand,Lansdowne,29.84183,78.68014
IN.35,Madhya Pradesh,Lānjī,21.50175,80.54059
IN.16,Maharashtra,Lānja,16.86086,73.54993
IN.24,Rajasthan,Lālsot,26.55951,76.32915
IN.09,Gujarat,Lālpur,22.19073,69.96351
IN.36,Uttar Pradesh,Lalitpur,24.69007,78.41915
IN.25,Tamil Nadu,Lalgudi,10.87419,78.81935
IN.28,West Bengal,Lālgola,24.42244,88.25238
IN.36,Uttar Pradesh,Lālganj,25.93182,81.70478
IN.34,Bihar,Lālganj,25.86894,85.17394
IN.13,Kerala,Lālam,9.71667,76.7
IN.03,Assam,Lāla,24.55418,92.61592
IN.19,Karnataka,Lakshmeshwar,15.12689,75.46935
IN.40,Telangana,Lakshettipet,18.86667,79.21667
IN.39,Uttarakhand,Laksar,29.7587,78.04148
IN.28,West Bengal,Lakhyabad,23.66667,86.66667
IN.09,Gujarat,Lakhtar,22.85683,71.78844
IN.35,Madhya Pradesh,Lakhnādon,22.60049,79.60094
IN.36,Uttar Pradesh,Lakhnā,26.64822,79.1477
IN.03,Assam,Lakhipur,26.03001,90.30611
IN.03,Assam,Lakhipur,24.79281,93.0091
IN.36,Uttar Pradesh,Lakhīmpur,27.94822,80.77935
IN.24,Rajasthan,Lākheri,25.67237,76.17692
IN.37,Chhattisgarh,Lakhanpur,22.98791,83.03563
IN.20,Nagaland,Lakema,25.56743,93.76056
IN.36,Uttar Pradesh,Lāharpur,27.70827,80.90256
IN.35,Madhya Pradesh,Lahār,26.19401,78.94137
IN.10,Haryana,Lādwa,29.9935,77.04563
IN.24,Rajasthan,Lādnūn,27.65312,74.39993
IN.35,Madhya Pradesh,Ladhaura,25.07295,78.8675
IN.24,Rajasthan,Laxmangarh,27.82294,75.02754
IN.11,Himachal Pradesh,Kyelang,32.5717,77.02448
IN.25,Tamil Nadu,Kuzhithurai,8.31792,77.19192
IN.13,Kerala,Kuttuparamba,11.82775,75.5659
IN.13,Kerala,Kuttippuram,10.84246,76.03077
IN.25,Tamil Nadu,Kūttankuli,8.21743,77.78109
IN.25,Tamil Nadu,Koothanallur,10.7199,79.5157
IN.13,Kerala,Kuttampuzha,10.15033,76.73544
IN.25,Tamil Nadu,Kuthalam,11.07431,79.56222
IN.25,Tamil Nadu,Kuttālam,8.9303,77.26951
IN.09,Gujarat,Kutiyāna,21.6241,69.98494
IN.13,Kerala,Kutiatodu,9.8,76.33333
IN.37,Chhattisgarh,Kusmi,23.28391,83.9083
IN.19,Karnataka,Kushtagi,15.75623,76.19112
IN.19,Karnataka,Kushālnagar,12.45795,75.95904
IN.24,Rajasthan,Kushālgarh,23.19899,74.45074
IN.37,Chhattisgarh,Kurud,20.83073,81.72212
IN.02,Andhra Pradesh,Kurnool,15.82887,78.03602
IN.16,Maharashtra,Kurkhera,20.61811,80.20851
IN.25,Tamil Nadu,Kurinjippādi,11.55028,79.59066
IN.19,Karnataka,Kurgunta,17.19321,77.35772
IN.16,Maharashtra,Kurduvādi,18.09339,75.41567
IN.36,Uttar Pradesh,Kurāra,25.98046,79.98984
IN.16,Maharashtra,Kurandvād,16.68317,74.58892
IN.23,Punjab,Kūrāli,30.83424,76.57677
IN.02,Andhra Pradesh,Kuppam,12.74931,78.34189
IN.25,Tamil Nadu,Kunnattūr,12.34782,78.51046
IN.25,Tamil Nadu,Kunnattūr,11.27275,77.41074
IN.13,Kerala,Kunnamkulam,10.64667,76.06695
IN.13,Kerala,Kunnamangalam,11.30459,75.87772
IN.37,Chhattisgarh,Kunkuri,22.74199,83.95099
IN.19,Karnataka,Kunigal,13.02319,77.02518
IN.09,Gujarat,Kundla,21.34222,71.30633
IN.19,Karnataka,Kundgol,15.25612,75.24735
IN.36,Uttar Pradesh,Kundarkhi,28.68304,78.78559
IN.35,Madhya Pradesh,Kundam,23.21916,80.35001
IN.36,Uttar Pradesh,Kunda,25.71702,81.51396
IN.19,Karnataka,Kumta,14.42853,74.4189
IN.19,Karnataka,Kumsi,14.05455,75.39992
IN.24,Rajasthan,Kūmher,27.31657,77.37079
IN.37,Chhattisgarh,Kumhāri,21.26667,81.51667
IN.35,Madhya Pradesh,Kumbhrāj,24.37338,77.04841
IN.19,Karnataka,Kumbalgod,12.87915,77.44645
IN.25,Tamil Nadu,Kumbakonam,10.96209,79.39124
IN.21,Odisha,Kumārmunda,22.3,84.78333
IN.28,West Bengal,Kumardubhi,23.74201,86.77882
IN.25,Tamil Nadu,Kumaralingam,10.48936,77.3499
IN.11,Himachal Pradesh,Kulu,31.95835,77.10823
IN.28,West Bengal,Kulti,23.73166,86.84372
IN.36,Uttar Pradesh,Kulpahār,25.32007,79.63931
IN.21,Odisha,Kullāda,19.96939,84.6329
IN.25,Tamil Nadu,Kulittalai,10.93487,78.41251
IN.12,Jammu and Kashmir,Kulgam,33.64456,75.01923
IN.25,Tamil Nadu,Kulattūr,10.70516,78.55068
IN.25,Tamil Nadu,Kulattūr,9.0032,78.1928
IN.25,Tamil Nadu,Kulasegaram,8.36319,77.29777
IN.35,Madhya Pradesh,Kukshi,22.20677,74.75788
IN.21,Odisha,Kukkudākhandi,19.39361,84.755
IN.35,Madhya Pradesh,Kukdeshwar,24.48285,75.26755
IN.40,Telangana,Kukatpally,17.48486,78.41376
IN.38,Jharkhand,Kuju,23.72536,85.51023
IN.19,Karnataka,Kūdligi,14.905,76.38527
IN.25,Tamil Nadu,Kodavasal,10.86163,79.47965
IN.16,Maharashtra,Kudāl,16.01148,73.68867
IN.19,Karnataka,Kudachi,16.62784,74.85408
IN.12,Jammu and Kashmir,Kūd,33.07246,75.28727
IN.24,Rajasthan,Kuchera,26.98747,73.97108
IN.24,Rajasthan,Kuchāman,27.14745,74.85655
IN.21,Odisha,Rairangpur,22.26675,86.17385
IN.19,Karnataka,Krishnarājpet,12.66621,76.4877
IN.19,Karnataka,Krishnarājāsāgara,12.43976,76.38276
IN.28,West Bengal,Krishnanagar,23.40576,88.49073
IN.25,Tamil Nadu,Krishnagiri,12.51921,78.21382
IN.13,Kerala,Kozhikode,11.24802,75.7804
IN.13,Kerala,Kozhancheri,9.35,76.7
IN.16,Maharashtra,Koynanagar,17.4,73.76667
IN.02,Andhra Pradesh,Kovvūr,17.0162,81.72934
IN.02,Andhra Pradesh,Kovūr,14.5005,79.98518
IN.25,Tamil Nadu,Kovilpatti,9.17167,77.86989
IN.13,Kerala,Kovalam,8.36667,76.99667
IN.35,Madhya Pradesh,Kotwa,25.0308,81.31908
IN.19,Karnataka,Kottūru,14.82442,76.22005
IN.13,Kerala,Kōttayam,11.82519,75.54779
IN.13,Kerala,Kottayam,9.58692,76.52132
IN.02,Andhra Pradesh,Kottavalasa,17.89044,83.1907
IN.13,Kerala,Kottārakara,9.00359,76.77383
IN.40,Telangana,Kottapalli,18.49543,79.0943
IN.13,Kerala,Kōttakkal,11.00089,76.00618
IN.25,Tamil Nadu,Kottaiyūr,10.10956,78.7956
IN.40,Telangana,Kottagūdem,17.55106,80.61779
IN.35,Madhya Pradesh,Kothri Kalān,23.07219,76.8296
IN.36,Uttar Pradesh,Kotra,25.8077,79.30909
IN.24,Rajasthan,Kotputli,27.70207,76.19911
IN.35,Madhya Pradesh,Kotma,23.20383,81.97904
IN.11,Himachal Pradesh,Kotla,32.25,76.03333
IN.11,Himachal Pradesh,Kotkhai,31.11728,77.53936
IN.23,Punjab,Kot Kapūra,30.58061,74.82609
IN.23,Punjab,Kot Īsa Khān,30.94659,75.1378
IN.35,Madhya Pradesh,Kothi,24.7526,80.77751
IN.09,Gujarat,Kotharia,22.23436,70.81903
IN.40,Telangana,Kothāpet,19.35176,79.48323
IN.40,Telangana,Kothakota,16.38002,77.94004
IN.23,Punjab,Kot Fatah,30.11316,75.0867
IN.39,Uttarakhand,Kotdwāra,29.74612,78.52219
IN.37,Chhattisgarh,Kotba,22.43943,83.73999
IN.35,Madhya Pradesh,Kotār,24.69802,80.98073
IN.37,Chhattisgarh,Kotapārh,19.14256,82.32536
IN.13,Kerala,Kotamangalam,10.06435,76.62843
IN.25,Tamil Nadu,Kotagiri,11.42072,76.86035
IN.24,Rajasthan,Kota,25.18254,75.83907
IN.36,Uttar Pradesh,Kota,24.44643,83.13063
IN.37,Chhattisgarh,Kotā,22.29507,82.02366
IN.02,Andhra Pradesh,Kosigi,15.8551,77.24463
IN.36,Uttar Pradesh,Kosi,27.79449,77.4368
IN.09,Gujarat,Kosamba,21.46202,72.95842
IN.35,Madhya Pradesh,Korwai,24.11774,78.04007
IN.02,Andhra Pradesh,Korukollu,16.5,81.25
IN.16,Maharashtra,Koregaon,18.64573,74.05909
IN.16,Maharashtra,Koregaon,17.69915,74.16252
IN.37,Chhattisgarh,Korba,22.3458,82.69633
IN.40,Telangana,Koratla,18.82154,78.71186
IN.19,Karnataka,Koratagere,13.522,77.2373
IN.21,Odisha,Koraput,18.81199,82.71048
IN.25,Tamil Nadu,Korampallam,8.77506,78.09158
IN.16,Maharashtra,Korādi,21.24758,79.10575
IN.25,Tamil Nadu,Koradacheri,10.77019,79.49158
IN.19,Karnataka,Koppal,15.34522,76.15478
IN.19,Karnataka,Koppa,13.53044,75.36329
IN.16,Maharashtra,Kopargaon,19.88239,74.47605
IN.36,Uttar Pradesh,Kopāganj,26.01923,83.5663
IN.40,Telangana,Konta,17.80492,81.38666
IN.19,Karnataka,Konnūr,16.20138,74.74886
IN.28,West Bengal,Konnagar,22.70508,88.34446
IN.25,Tamil Nadu,Konganāpuram,11.57105,77.9004
IN.13,Kerala,Kondotty,11.1423,75.9657
IN.02,Andhra Pradesh,Kondapalle,16.61989,80.54244
IN.16,Maharashtra,Kondalwādi,18.80727,77.77031
IN.37,Chhattisgarh,Kondagaon,19.59083,81.664
IN.36,Uttar Pradesh,Konch,25.99451,79.15127
IN.21,Odisha,Konārka,19.89021,86.09761
IN.19,Karnataka,Konanūr,12.63016,76.05037
IN.25,Tamil Nadu,Kombai,9.84745,77.29603
IN.31,Mizoram,Kolasib,24.22388,92.67869
IN.19,Karnataka,Kollegāl,12.15449,77.11051
IN.16,Maharashtra,Kolhāpur,16.69563,74.23167
IN.24,Rajasthan,Kolāyat,27.83815,72.95975
IN.35,Madhya Pradesh,Kolāras,25.21928,77.61167
IN.19,Karnataka,Kolār,13.13768,78.12999
IN.02,Andhra Pradesh,Kolanukonda,16.45392,80.61046
IN.25,Tamil Nadu,Colachel,8.17938,77.25818
IN.03,Assam,Kokrajhar,26.40107,90.27286
IN.21,Odisha,Koīra,21.90494,85.24208
IN.20,Nagaland,Kohima,25.67467,94.11099
IN.34,Bihar,Koelwār,25.58055,84.79751
IN.13,Kerala,Kodungallūr,10.23263,76.19513
IN.25,Tamil Nadu,Kodumudi,11.07751,77.88363
IN.16,Maharashtra,Kodoli,16.87639,74.1909
IN.19,Karnataka,Kodlipet,12.80087,75.88662
IN.09,Gujarat,Kodīnar,20.79393,70.70216
IN.19,Karnataka,Kodigenahalli,13.72136,77.38629
IN.38,Jharkhand,Kodarma,24.46753,85.59397
IN.40,Telangana,Kodār,16.9985,79.9656
IN.21,Odisha,Kodala,19.62425,84.94075
IN.25,Tamil Nadu,Kodaikānāl,10.23925,77.48932
IN.21,Odisha,Kuchinda,21.74356,84.34848
IN.28,West Bengal,Koch Bihār,26.32539,89.44508
IN.34,Bihar,Koāth,25.32643,84.25983
IN.13,Kerala,Kizhake Chālakudi,10.30067,76.33763
IN.36,Uttar Pradesh,Kithor,28.86684,77.93861
IN.12,Jammu and Kashmir,Kishtwār,33.31346,75.76726
IN.36,Uttar Pradesh,Kishni,27.02487,79.262
IN.36,Uttar Pradesh,Kishanpur,25.64232,81.0227
IN.24,Rajasthan,Kishangarh,27.81889,76.72972
IN.24,Rajasthan,Renwāl,27.15767,75.35808
IN.24,Rajasthan,Kishangarh,26.59006,74.85397
IN.34,Bihar,Kishanganj,26.10224,87.95534
IN.35,Madhya Pradesh,Kirnāpur,21.62592,80.33142
IN.21,Odisha,Kiri Buru,22.08333,85.35
IN.36,Uttar Pradesh,Kīratpur,29.50671,78.20613
IN.36,Uttar Pradesh,Kiraoli,27.13768,77.78516
IN.25,Tamil Nadu,Ulundurpet,11.69099,79.2873
IN.25,Tamil Nadu,Kīranūr,10.59395,77.50315
IN.25,Tamil Nadu,Kīranūr,10.56988,78.78682
IN.36,Uttar Pradesh,Kirākat,25.63745,82.91596
IN.16,Maharashtra,Kinwat,19.62557,78.1987
IN.25,Tamil Nadu,Kinattukkadavu,10.82248,77.01962
IN.25,Tamil Nadu,Kilvelur,10.76721,79.74186
IN.39,Uttarakhand,Kichha,28.91154,79.52009
IN.40,Telangana,Kiādgira,17.25255,77.43337
IN.36,Uttar Pradesh,Khūtār,28.20307,80.27046
IN.34,Bihar,Khusropur,25.48174,85.38492
IN.36,Uttar Pradesh,Khurja,28.25382,77.85535
IN.21,Odisha,Khordha,20.18268,85.61629
IN.35,Madhya Pradesh,Khurai,24.04372,78.33014
IN.38,Jharkhand,Khunti,23.07602,85.27818
IN.16,Maharashtra,Khuldābād,20.00671,75.19245
IN.35,Madhya Pradesh,Khujner,23.78597,76.61773
IN.36,Uttar Pradesh,Khudāganj,28.14607,79.71472
IN.12,Jammu and Kashmir,Khreuh,34.01886,74.99914
IN.26,Tripura,Khowai,24.07964,91.59972
IN.16,Maharashtra,Khopoli,18.78562,73.34589
IN.30,Arunachal Pradesh,Khonsa,27.01667,95.56667
IN.35,Madhya Pradesh,Khirkiya,22.16732,76.86137
IN.35,Madhya Pradesh,Khilchipur,24.03943,76.578
IN.24,Rajasthan,Khetri,28.00069,75.78644
IN.16,Maharashtra,Khetia,21.67124,74.58535
IN.24,Rajasthan,Kherwāra,23.98588,73.59493
IN.36,Uttar Pradesh,Kheri,27.90354,80.79754
IN.09,Gujarat,Kherālu,23.88534,72.61869
IN.23,Punjab,Khem Karan,31.14443,74.55938
IN.36,Uttar Pradesh,Khekra,28.86586,77.2841
IN.09,Gujarat,Khedbrahma,24.0299,73.04632
IN.09,Gujarat,Kheda,22.75218,72.68533
IN.16,Maharashtra,Khed,18.33811,73.84677
IN.16,Maharashtra,Khed,17.71888,73.39693
IN.31,Mizoram,Khawhai,23.37807,93.12797
IN.12,Jammu and Kashmir,Khaur,32.6027,74.80918
IN.28,West Bengal,Khātra,22.97617,86.85462
IN.39,Uttarakhand,Khatīma,28.92134,79.97075
IN.35,Madhya Pradesh,Khātegaon,22.59573,76.9133
IN.36,Uttar Pradesh,Khatauli,29.27844,77.73302
IN.11,Himachal Pradesh,Nagrota Bagwān,32.10721,76.37657
IN.03,Assam,Khārupatia,26.51839,92.14722
IN.37,Chhattisgarh,Kharsia,21.98953,83.10476
IN.38,Jharkhand,Kharsāwān,22.79093,85.83102
IN.16,Maharashtra,Kharpāda,18.83609,73.09415
IN.37,Chhattisgarh,Kharora,21.40097,81.92757
IN.37,Chhattisgarh,Kharod,21.7442,82.5788
IN.10,Haryana,Kharkhauda,28.8787,76.91069
IN.36,Uttar Pradesh,Kharkhauda,28.83644,77.74159
IN.21,Odisha,Kharhiāl,20.28845,82.7606
IN.36,Uttar Pradesh,Khargupur,27.37611,81.9882
IN.35,Madhya Pradesh,Khargone,21.82292,75.61394
IN.35,Madhya Pradesh,Khargāpur,24.823,79.144
IN.36,Uttar Pradesh,Kharela,25.54277,79.81235
IN.16,Maharashtra,Khardi,19.58763,73.38195
IN.28,West Bengal,Khardah,22.71861,88.37806
IN.23,Punjab,Kharar,30.74632,76.64689
IN.28,West Bengal,Kharar,22.72211,87.67824
IN.16,Maharashtra,Kharakvasla,18.43997,73.77545
IN.34,Bihar,Kharagpur,25.12446,86.55578
IN.28,West Bengal,Kharagpur,22.33971,87.32501
IN.16,Maharashtra,Khāpa,21.42243,78.98168
IN.36,Uttar Pradesh,Khānpur,28.53446,78.06546
IN.24,Rajasthan,Khānpur,24.73241,76.39601
IN.23,Punjab,Khanna,30.70547,76.22196
IN.35,Madhya Pradesh,Khaniādhāna,25.02983,78.12709
IN.35,Madhya Pradesh,Khandwa,21.82427,76.35086
IN.21,Odisha,Khandpara,20.26436,85.17673
IN.24,Rajasthan,Khandela,27.60499,75.502
IN.19,Karnataka,Khānāpur,15.63969,74.50847
IN.40,Telangana,Khammam,17.24767,80.14368
IN.37,Chhattisgarh,Khamharia,20.976,82.25116
IN.16,Maharashtra,Khāmgaon,20.70738,76.56827
IN.09,Gujarat,Khambhāt,22.31744,72.61916
IN.09,Gujarat,Khambhāliya,22.20685,69.65031
IN.35,Madhya Pradesh,Khamaria,23.22558,79.88007
IN.23,Punjab,Khamānon Kalān,30.81725,76.35478
IN.21,Odisha,Khallikot,19.60908,85.08609
IN.36,Uttar Pradesh,Khalīlābād,26.77268,83.07179
IN.52,Dadra and Nagar Haveli and Daman and Diu,Khali Kachigam,20.38333,72.86667
IN.38,Jharkhand,Khalāri,23.65063,85.00744
IN.35,Madhya Pradesh,Khajuraho Group of Monuments,24.84809,79.93351
IN.36,Uttar Pradesh,Khairāgarh,26.94352,77.81816
IN.37,Chhattisgarh,Khairāgarh,21.41859,80.97942
IN.36,Uttar Pradesh,Khairābād,27.52698,80.75461
IN.24,Rajasthan,Khairābād,24.6596,75.93067
IN.36,Uttar Pradesh,Khair,27.94195,77.84243
IN.36,Uttar Pradesh,Khailār,25.34127,78.53133
IN.34,Bihar,Khagaul,25.57898,85.04564
IN.34,Bihar,Khagaria,25.5022,86.46708
IN.36,Uttar Pradesh,Khāga,25.77215,81.10393
IN.16,Maharashtra,Khadki,18.5635,73.85205
IN.36,Uttar Pradesh,Khada,27.18333,83.88333
IN.35,Madhya Pradesh,Khāchrod,23.42322,75.28185
IN.24,Rajasthan,Kaithoon,25.12407,75.97218
IN.37,Chhattisgarh,Keskāl,20.0836,81.58675
IN.21,Odisha,Kesinga,20.18778,83.21949
IN.24,Rajasthan,Keshorai Pātan,25.29275,75.93948
IN.09,Gujarat,Keshod,21.30328,70.24861
IN.34,Bihar,Kesariyā,26.34992,84.87086
IN.19,Karnataka,Kerūr,16.01384,75.54631
IN.12,Jammu and Kashmir,Keran,34.65371,73.95308
IN.21,Odisha,Keonjhargarh,21.6318,85.59686
IN.35,Madhya Pradesh,Keolāri,22.36974,79.90603
IN.38,Jharkhand,Kenduadīh,23.73602,86.37403
IN.21,Odisha,Kendrāparha,20.50166,86.42227
IN.28,West Bengal,Kenda,23.1959,86.51499
IN.36,Uttar Pradesh,Kemrī,28.80673,79.2048
IN.24,Rajasthan,Kelwa,25.15212,73.84332
IN.25,Tamil Nadu,Kelamangalam,12.60307,77.85193
IN.24,Rajasthan,Kekri,25.97132,75.14992
IN.25,Tamil Nadu,Kayattār,8.94834,77.77424
IN.13,Kerala,Kayamkulam,9.18173,76.50093
IN.25,Tamil Nadu,Kayalpattinam,8.57143,78.11992
